<?xml version="1.0" encoding="UTF-8"?>
<gpx xmlns="http://www.topografix.com/GPX/1/1" xmlns:xsi="http://www.w3.org/2001/XMLSchema-instance" xsi:schemaLocation="http://www.topografix.com/GPX/1/1 http://www.topografix.com/GPX/1/1/gpx.xsd" version="1.1" creator="gpx.py -- https://github.com/tkrajina/gpxpy">
  <trk>
    <trkseg>
      <trkpt lat="46.371944444444445" lon="7.974722222222223">
        <name>Belalp 2094 m</name>
      </trkpt>
      <trkpt lat="46.3975" lon="7.977777777777778">
        <name>Hohbiel Bergstation 2674 m</name>
      </trkpt>
      <trkpt lat="46.404444444444444" lon="7.984166666666667">
        <name>Sparrhorn 3021 m</name>
      </trkpt>
      <trkpt lat="46.38527777777778" lon="7.984166666666667">
        <name>Tyndalldenkmal 2351 m</name>
      </trkpt>
      <trkpt lat="46.36944444444445" lon="7.9686111111111115">
        <name>Belalp - Hamilton Lodge 2050 m</name>
      </trkpt>
      <trkpt lat="46.36638888888889" lon="7.966666666666667">
        <name>Alpe Bäll 2010 m</name>
      </trkpt>
      <trkpt lat="46.35861111111111" lon="7.983611111111111">
        <name>Blatten bei Naters 1327 m</name>
      </trkpt>
    </trkseg>
  </trk>
  <trk>
    <trkseg>
      <trkpt lat="46.17833333333333" lon="7.8244444444444445">
        <name>Gasenried 1659 m</name>
      </trkpt>
      <trkpt lat="46.19583333333333" lon="7.838888888888889">
        <name>Grächen 1616 m</name>
      </trkpt>
      <trkpt lat="46.196666666666665" lon="7.841666666666667">
        <name>Grächen - Talstation Gondelbahn  1620 m</name>
      </trkpt>
      <trkpt lat="46.206944444444446" lon="7.867222222222223">
        <name>Hannigalp 2122 m</name>
      </trkpt>
      <trkpt lat="46.197222222222216" lon="7.865277777777777">
        <name>Stafel 2216 m</name>
      </trkpt>
      <trkpt lat="46.18555555555555" lon="7.857222222222222">
        <name>Heidnische Tossu 2512 m</name>
      </trkpt>
      <trkpt lat="46.216944444444444" lon="7.859166666666666">
        <name>Hohtschuggen 1620 m</name>
      </trkpt>
      <trkpt lat="46.22666666666667" lon="7.865277777777777">
        <name>Illas 888 m</name>
      </trkpt>
      <trkpt lat="46.23222222222223" lon="7.870833333333334">
        <name>Stalden 799 m</name>
      </trkpt>
      <trkpt lat="46.239444444444445" lon="7.873055555555556">
        <name>Ackersand 695 m</name>
      </trkpt>
      <trkpt lat="46.248333333333335" lon="7.877222222222223">
        <name>Milachru 697 m</name>
      </trkpt>
      <trkpt lat="46.27861111111111" lon="7.881388888888889">
        <name>Chatzuhüs 660 m</name>
      </trkpt>
      <trkpt lat="46.29361111111111" lon="7.882777777777778">
        <name>Visp 651 m</name>
      </trkpt>
    </trkseg>
  </trk>
  <trk>
    <trkseg>
      <trkpt lat="46.17833333333333" lon="7.8244444444444445">
        <name>Gasenried 1659 m</name>
      </trkpt>
      <trkpt lat="46.16833333333333" lon="7.8325">
        <name>Riedbach Schöpfe 1840 m</name>
      </trkpt>
      <trkpt lat="46.17583333333333" lon="7.859166666666666">
        <name>Grächen - Station Seetal 2864 m</name>
      </trkpt>
      <trkpt lat="46.17527777777777" lon="7.8613888888888885">
        <name>Seetalpass 2975 m</name>
      </trkpt>
      <trkpt lat="46.176944444444445" lon="7.863888888888889">
        <name>Seetalhorn 3037 m</name>
      </trkpt>
      <trkpt lat="46.172777777777775" lon="7.859722222222222">
        <name>P.3061m 3061 m</name>
      </trkpt>
      <trkpt lat="46.16638888888889" lon="7.8613888888888885">
        <name>Platthorn 3246 m</name>
      </trkpt>
    </trkseg>
  </trk>
  <trk>
    <trkseg>
      <trkpt lat="46.0175" lon="7.77">
        <name>Sunnegga - Seilbahnstation 2288 m</name>
      </trkpt>
      <trkpt lat="46.01694444444444" lon="7.786111111111111">
        <name>Zermatt Blauherd 2576 m</name>
      </trkpt>
      <trkpt lat="46.013333333333335" lon="7.7988888888888885">
        <name>Stellisee 2537 m</name>
      </trkpt>
      <trkpt lat="46.01277777777778" lon="7.810833333333333">
        <name>Berggasthaus Flue 2618 m</name>
      </trkpt>
      <trkpt lat="46.01416666666667" lon="7.822777777777778">
        <name>Flualp 2680 m</name>
      </trkpt>
      <trkpt lat="46.01611111111111" lon="7.843611111111111">
        <name>Pfulwe / Fluhpass 3155 m</name>
      </trkpt>
      <trkpt lat="46.01611111111111" lon="7.8475">
        <name>Pfulwe 3314 m</name>
      </trkpt>
      <trkpt lat="46.01777777777777" lon="7.840833333333333">
        <name>Spitzi Flue 3260 m</name>
      </trkpt>
      <trkpt lat="46.02305555555555" lon="7.828333333333333">
        <name>Fluehorn 3313 m</name>
      </trkpt>
      <trkpt lat="46.02388888888889" lon="7.748888888888889">
        <name>Talstation Gornergratbahn 1605 m</name>
      </trkpt>
    </trkseg>
  </trk>
  <trk>
    <trkseg>
      <trkpt lat="46.099722222222226" lon="7.781944444444444">
        <name>Randa 1407 m</name>
      </trkpt>
      <trkpt lat="46.10055555555556" lon="7.806388888888889">
        <name>Hängebrücke Europaweg 2200 m</name>
      </trkpt>
      <trkpt lat="46.103611111111114" lon="7.806666666666667">
        <name>Europahütte 2220 m</name>
      </trkpt>
      <trkpt lat="46.1025" lon="7.8175">
        <name>Domhütte SAC 2940 m</name>
      </trkpt>
      <trkpt lat="46.10138888888889" lon="7.848333333333333">
        <name>Festijoch 3723 m</name>
      </trkpt>
      <trkpt lat="46.09388888888889" lon="7.858888888888888">
        <name>Dom 4545 m</name>
      </trkpt>
    </trkseg>
  </trk>
  <trk>
    <trkseg>
      <trkpt lat="45.956944444444446" lon="7.814444444444444">
        <name>Monte Rosa Hütte SAC 2882 m</name>
      </trkpt>
      <trkpt lat="45.95138888888889" lon="7.823055555555555">
        <name>Biwakplatz P.3109m 3109 m</name>
      </trkpt>
      <trkpt lat="45.94333333333333" lon="7.859166666666666">
        <name>Monte Rosagletscher 4000 m</name>
      </trkpt>
      <trkpt lat="45.9375" lon="7.861944444444444">
        <name>Obere Westgratherhebung Dufourspitze 4498 m</name>
      </trkpt>
      <trkpt lat="45.93694444444444" lon="7.866944444444445">
        <name>Dufourspitze 4634 m</name>
      </trkpt>
    </trkseg>
  </trk>
  <trk>
    <trkseg>
      <trkpt lat="45.956944444444446" lon="7.814444444444444">
        <name>Monte Rosa Hütte SAC 2882 m</name>
      </trkpt>
      <trkpt lat="45.964444444444446" lon="7.827222222222222">
        <name>Saaser Licka 3110 m</name>
      </trkpt>
      <trkpt lat="45.98444444444444" lon="7.856388888888889">
        <name>Stockhornpass 3387 m</name>
      </trkpt>
      <trkpt lat="45.98527777777778" lon="7.848055555555555">
        <name>Stockhorn - Ostgrat 3462 m</name>
      </trkpt>
      <trkpt lat="45.98527777777778" lon="7.8438888888888885">
        <name>Sattel Stockhorn Ostgrat 3429 m</name>
      </trkpt>
      <trkpt lat="45.98583333333333" lon="7.837777777777777">
        <name>Stockhorn 3532 m</name>
      </trkpt>
    </trkseg>
  </trk>
  <trk>
    <trkseg>
      <trkpt lat="45.956944444444446" lon="7.814444444444444">
        <name>Monte Rosa Hütte SAC 2882 m</name>
      </trkpt>
      <trkpt lat="45.95138888888889" lon="7.823055555555555">
        <name>Biwakplatz P.3109m 3109 m</name>
      </trkpt>
      <trkpt lat="45.94333333333333" lon="7.859166666666666">
        <name>Monte Rosagletscher 4000 m</name>
      </trkpt>
      <trkpt lat="45.9375" lon="7.868611111111112">
        <name>Silbersattel 4515 m</name>
      </trkpt>
      <trkpt lat="45.94194444444444" lon="7.869722222222222">
        <name>Nordend / Punta Nordend 4609 m</name>
      </trkpt>
    </trkseg>
  </trk>
  <trk>
    <trkseg>
      <trkpt lat="47.651111111111106" lon="12.961666666666666">
        <name>Bischofswiesen 654 m</name>
      </trkpt>
      <trkpt lat="47.661944444444444" lon="12.934722222222222">
        <name>Wallfahrtskirche Maria Hilf 820 m</name>
      </trkpt>
      <trkpt lat="47.669444444444444" lon="12.895">
        <name>Mitterkaseralm 1270 m</name>
      </trkpt>
      <trkpt lat="47.67638888888889" lon="12.8925">
        <name>Törlkopf 1704 m</name>
      </trkpt>
      <trkpt lat="47.686388888888885" lon="12.892222222222221">
        <name>Karkopf 1739 m</name>
      </trkpt>
      <trkpt lat="47.69138888888889" lon="12.898333333333333">
        <name>Dreisesselberg 1679 m</name>
      </trkpt>
      <trkpt lat="47.69916666666666" lon="12.911388888888888">
        <name>Speik 950 m</name>
      </trkpt>
      <trkpt lat="47.715833333333336" lon="12.89861111111111">
        <name>Parkplatz Wanderzentrum 580 m</name>
      </trkpt>
    </trkseg>
  </trk>
  <trk>
    <trkseg>
      <trkpt lat="47.71555555555556" lon="12.774722222222223">
        <name>Brücke über Weißbach 600 m</name>
      </trkpt>
      <trkpt lat="47.69444444444444" lon="12.7825">
        <name>Ristfeuchthorn 1569 m</name>
      </trkpt>
      <trkpt lat="47.69694444444444" lon="12.78361111111111">
        <name>Ristfeuchthorn - Nordgipfel / Kreuzgipfel 1566 m</name>
      </trkpt>
    </trkseg>
  </trk>
  <trk>
    <trkseg>
      <trkpt lat="47.728611111111114" lon="12.399166666666666">
        <name>Mühlau 590 m</name>
      </trkpt>
      <trkpt lat="47.728611111111114" lon="12.3925">
        <name>Wanderparkplatz Mühlau 630 m</name>
      </trkpt>
      <trkpt lat="47.736111111111114" lon="12.396388888888888">
        <name>Oberauerbrunstalm 970 m</name>
      </trkpt>
      <trkpt lat="47.75138888888889" lon="12.405833333333334">
        <name>Hochplatte 1587 m</name>
      </trkpt>
      <trkpt lat="47.753055555555555" lon="12.4">
        <name>Bergwachthütte 1320 m</name>
      </trkpt>
      <trkpt lat="47.755833333333335" lon="12.368333333333334">
        <name>Kampenwand Ostgipfel 1664 m</name>
      </trkpt>
      <trkpt lat="47.759166666666665" lon="12.365833333333333">
        <name>Steinlingalm 1450 m</name>
      </trkpt>
      <trkpt lat="47.75472222222222" lon="12.357222222222221">
        <name>Kampenwandhütte (DAV München) 1520 m</name>
      </trkpt>
      <trkpt lat="47.756388888888885" lon="12.358333333333333">
        <name>Staffelstein 1512 m</name>
      </trkpt>
      <trkpt lat="47.75333333333333" lon="12.354166666666666">
        <name>Sonnenalm 1467 m</name>
      </trkpt>
      <trkpt lat="47.75138888888889" lon="12.348611111111111">
        <name>Scheibenwand 1598 m</name>
      </trkpt>
      <trkpt lat="47.76" lon="12.352777777777778">
        <name>Gori-Alm 1240 m</name>
      </trkpt>
      <trkpt lat="47.77611111111111" lon="12.323888888888888">
        <name>Aschau im Chiemgau 615 m</name>
      </trkpt>
    </trkseg>
  </trk>
  <trk>
    <trkseg>
      <trkpt lat="47.68888888888888" lon="12.573888888888888">
        <name>Weitsee - Parkplatz 753 m</name>
      </trkpt>
      <trkpt lat="47.705000000000005" lon="12.576666666666666">
        <name>Gurnwandkopf - Westgipfel 1691 m</name>
      </trkpt>
      <trkpt lat="47.70583333333334" lon="12.578888888888889">
        <name>Gurnwandkopf 1691 m</name>
      </trkpt>
      <trkpt lat="47.70611111111111" lon="12.584444444444445">
        <name>Hörndlwand 1684 m</name>
      </trkpt>
    </trkseg>
  </trk>
  <trk>
    <trkseg>
      <trkpt lat="47.71222222222222" lon="12.280555555555557">
        <name>Innerwald 716 m</name>
      </trkpt>
      <trkpt lat="47.71416666666667" lon="12.258055555555556">
        <name>Brandelbergalm 1250 m</name>
      </trkpt>
      <trkpt lat="47.7175" lon="12.254722222222222">
        <name>Brandelberg 1516 m</name>
      </trkpt>
      <trkpt lat="47.7325" lon="12.265">
        <name>Zinnenberg 1565 m</name>
      </trkpt>
      <trkpt lat="47.73555555555556" lon="12.262777777777778">
        <name>Klausenhütte 1500 m</name>
      </trkpt>
      <trkpt lat="47.73861111111111" lon="12.266388888888889">
        <name>Klausenberg 1554 m</name>
      </trkpt>
      <trkpt lat="47.73916666666667" lon="12.279722222222222">
        <name>Angereralm 1196 m</name>
      </trkpt>
      <trkpt lat="47.746944444444445" lon="12.291944444444445">
        <name>Ellandalm 990 m</name>
      </trkpt>
      <trkpt lat="47.77611111111111" lon="12.323888888888888">
        <name>Aschau im Chiemgau 615 m</name>
      </trkpt>
      <trkpt lat="47.778888888888886" lon="12.325833333333334">
        <name>Aschau im Chiemgau - Bahnhof 610 m</name>
      </trkpt>
    </trkseg>
  </trk>
  <trk>
    <trkseg>
      <trkpt lat="46.638888888888886" lon="10.29861111111111">
        <name>Plaun dasl Bovs 2078 m</name>
      </trkpt>
      <trkpt lat="46.621944444444445" lon="10.280000000000001">
        <name>P.2650m 2650 m</name>
      </trkpt>
      <trkpt lat="46.618611111111115" lon="10.290833333333333">
        <name>Piz Daint 2968 m</name>
      </trkpt>
    </trkseg>
  </trk>
  <trk>
    <trkseg>
      <trkpt lat="46.655833333333334" lon="10.034722222222221">
        <name>Brail 1636 m</name>
      </trkpt>
      <trkpt lat="46.66583333333333" lon="9.965277777777777">
        <name>P. 2816 2816 m</name>
      </trkpt>
      <trkpt lat="46.66583333333333" lon="9.960277777777778">
        <name>P. 2950 2950 m</name>
      </trkpt>
      <trkpt lat="46.66416666666667" lon="9.9675">
        <name>P. 2799 2799 m</name>
      </trkpt>
      <trkpt lat="46.66166666666666" lon="9.96888888888889">
        <name>Piz Fourun - Westlicher Vorgipfel 2883 m</name>
      </trkpt>
      <trkpt lat="46.66111111111111" lon="9.975555555555555">
        <name>Piz Fourun 2932 m</name>
      </trkpt>
    </trkseg>
  </trk>
  <trk>
    <trkseg>
      <trkpt lat="47.44027777777777" lon="11.265555555555556">
        <name>Mittenwald Bahnhof 915 m</name>
      </trkpt>
      <trkpt lat="47.4375" lon="11.309444444444445">
        <name>Dammkarhütte 1667 m</name>
      </trkpt>
      <trkpt lat="47.43555555555555" lon="11.311944444444444">
        <name>Bergwachthütte im Dammkar 1780 m</name>
      </trkpt>
    </trkseg>
  </trk>
  <trk>
    <trkseg>
      <trkpt lat="47.71083333333333" lon="12.246666666666666">
        <name>Spitzstein 1596 m</name>
      </trkpt>
      <trkpt lat="47.698055555555555" lon="12.2525">
        <name>Meßneralm 1098 m</name>
      </trkpt>
      <trkpt lat="47.70444444444445" lon="12.243333333333332">
        <name>Spitzsteinhaus 1252 m</name>
      </trkpt>
      <trkpt lat="47.70527777777778" lon="12.243333333333332">
        <name>Altkaseralm 1279 m</name>
      </trkpt>
      <trkpt lat="47.70888888888889" lon="12.282222222222224">
        <name>Huben 715 m</name>
      </trkpt>
    </trkseg>
  </trk>
  <trk>
    <trkseg>
      <trkpt lat="46.69305555555555" lon="10.139166666666666">
        <name>Brücke Ova da Laschadura 1747 m</name>
      </trkpt>
      <trkpt lat="46.700833333333335" lon="10.14861111111111">
        <name>Alp Laschadura 2000 m</name>
      </trkpt>
      <trkpt lat="46.723333333333336" lon="10.154444444444445">
        <name>Piz Nuna 3124 m</name>
      </trkpt>
    </trkseg>
  </trk>
  <trk>
    <trkseg>
      <trkpt lat="46.472500000000004" lon="9.743611111111111">
        <name>Alp Güglia - Neuer Parkplatz 2200 m</name>
      </trkpt>
      <trkpt lat="46.50138888888889" lon="9.752777777777778">
        <name>Fuorcla Chamuotsch 2922 m</name>
      </trkpt>
      <trkpt lat="46.499722222222225" lon="9.75388888888889">
        <name>Corn Chamuotsch 3016 m</name>
      </trkpt>
      <trkpt lat="46.50472222222222" lon="9.749444444444444">
        <name>Corn Suvretta 3071 m</name>
      </trkpt>
    </trkseg>
  </trk>
  <trk>
    <trkseg>
      <trkpt lat="47.76138888888889" lon="12.647222222222222">
        <name>Ruhpolding 656 m</name>
      </trkpt>
      <trkpt lat="47.754444444444445" lon="12.631388888888889">
        <name>Maiergschwendt 710 m</name>
      </trkpt>
      <trkpt lat="47.76111111111111" lon="12.581666666666667">
        <name>Strohnschneid 1484 m</name>
      </trkpt>
      <trkpt lat="47.761944444444445" lon="12.56">
        <name>Hochfelln 1664 m</name>
      </trkpt>
      <trkpt lat="47.750277777777775" lon="12.55888888888889">
        <name>Weißgrabenkopf 1578 m</name>
      </trkpt>
      <trkpt lat="47.74611111111111" lon="12.56027777777778">
        <name>Gröhrkopf 1562 m</name>
      </trkpt>
      <trkpt lat="47.74138888888889" lon="12.560833333333335">
        <name>Haaralmschneid 1594 m</name>
      </trkpt>
      <trkpt lat="47.72833333333333" lon="12.581111111111111">
        <name>Urschlau 767 m</name>
      </trkpt>
      <trkpt lat="47.73916666666667" lon="12.6025">
        <name>Brand 720 m</name>
      </trkpt>
      <trkpt lat="47.74277777777778" lon="12.61361111111111">
        <name>Staudigelhütte 720 m</name>
      </trkpt>
    </trkseg>
  </trk>
  <trk>
    <trkseg>
      <trkpt lat="47.77611111111111" lon="12.323888888888888">
        <name>Aschau im Chiemgau 615 m</name>
      </trkpt>
      <trkpt lat="47.76861111111111" lon="12.301388888888889">
        <name>Hofalm 970 m</name>
      </trkpt>
      <trkpt lat="47.757222222222225" lon="12.268611111111111">
        <name>Riesenhütte 1345 m</name>
      </trkpt>
      <trkpt lat="47.755" lon="12.263333333333334">
        <name>Riesenalm 1350 m</name>
      </trkpt>
      <trkpt lat="47.74722222222222" lon="12.249166666666666">
        <name>Hochrieshaus 1563 m</name>
      </trkpt>
      <trkpt lat="47.746944444444445" lon="12.248888888888889">
        <name>Hochries 1568 m</name>
      </trkpt>
      <trkpt lat="47.73972222222222" lon="12.24111111111111">
        <name>Karkopf 1496 m</name>
      </trkpt>
      <trkpt lat="47.73722222222222" lon="12.235">
        <name>Pölcherschneid 1380 m</name>
      </trkpt>
      <trkpt lat="47.73416666666667" lon="12.231944444444444">
        <name>Feichteck 1514 m</name>
      </trkpt>
      <trkpt lat="47.73555555555556" lon="12.262777777777778">
        <name>Klausenhütte 1500 m</name>
      </trkpt>
      <trkpt lat="47.738055555555555" lon="12.250833333333333">
        <name>Unterwiesenalm 1088 m</name>
      </trkpt>
      <trkpt lat="47.746944444444445" lon="12.291944444444445">
        <name>Ellandalm 990 m</name>
      </trkpt>
      <trkpt lat="47.77611111111111" lon="12.323888888888888">
        <name>Aschau im Chiemgau 615 m</name>
      </trkpt>
    </trkseg>
  </trk>
  <trk>
    <trkseg>
      <trkpt lat="47.76" lon="12.459999999999999">
        <name>Marquartstein 545 m</name>
      </trkpt>
      <trkpt lat="47.75694444444444" lon="12.470555555555556">
        <name>Burg Marquartstein 575 m</name>
      </trkpt>
      <trkpt lat="47.750277777777775" lon="12.498055555555554">
        <name>Hochgernhaus 1510 m</name>
      </trkpt>
      <trkpt lat="47.75194444444445" lon="12.500555555555556">
        <name>Zwölferspitz 1633 m</name>
      </trkpt>
      <trkpt lat="47.75" lon="12.506388888888889">
        <name>Moarbichl 1597 m</name>
      </trkpt>
      <trkpt lat="47.75055555555556" lon="12.515833333333333">
        <name>Hochgern 1748 m</name>
      </trkpt>
      <trkpt lat="47.777499999999996" lon="12.484166666666665">
        <name>Staudach 580 m</name>
      </trkpt>
    </trkseg>
  </trk>
  <trk>
    <trkseg>
      <trkpt lat="47.723888888888894" lon="12.657777777777778">
        <name>Laubau 695 m</name>
      </trkpt>
      <trkpt lat="47.7325" lon="12.684166666666666">
        <name>Vorderer Rauschberg 1645 m</name>
      </trkpt>
      <trkpt lat="47.73277777777778" lon="12.687222222222223">
        <name>Vorderer Rauschberg - Ostgipfel 1644 m</name>
      </trkpt>
      <trkpt lat="47.73388888888889" lon="12.693055555555556">
        <name>Roßgassenkopf 1650 m</name>
      </trkpt>
      <trkpt lat="47.7325" lon="12.6975">
        <name>Hinterer Rauschberg 1671 m</name>
      </trkpt>
      <trkpt lat="47.719166666666666" lon="12.710277777777778">
        <name>Kaitlalm 970 m</name>
      </trkpt>
      <trkpt lat="47.73083333333334" lon="12.705833333333333">
        <name>Kienbergsattel 1430 m</name>
      </trkpt>
      <trkpt lat="47.72805555555556" lon="12.705555555555556">
        <name>Kienbergalm 1440 m</name>
      </trkpt>
      <trkpt lat="47.73277777777778" lon="12.711666666666666">
        <name>Inzeller Skihütte 1545 m</name>
      </trkpt>
      <trkpt lat="47.73555555555556" lon="12.712777777777777">
        <name>Streicher 1594 m</name>
      </trkpt>
      <trkpt lat="47.73444444444444" lon="12.720277777777778">
        <name>Zenokopf 1608 m</name>
      </trkpt>
      <trkpt lat="47.749722222222225" lon="12.725">
        <name>Schmelz 773 m</name>
      </trkpt>
    </trkseg>
  </trk>
  <trk>
    <trkseg>
      <trkpt lat="47.77611111111111" lon="12.323888888888888">
        <name>Aschau im Chiemgau 615 m</name>
      </trkpt>
      <trkpt lat="47.76861111111111" lon="12.301388888888889">
        <name>Hofalm 970 m</name>
      </trkpt>
      <trkpt lat="47.75972222222222" lon="12.295833333333333">
        <name>Hammerstein 1278 m</name>
      </trkpt>
      <trkpt lat="47.757222222222225" lon="12.295555555555556">
        <name>Zellerhorn 1396 m</name>
      </trkpt>
      <trkpt lat="47.75333333333333" lon="12.288611111111111">
        <name>Zellerwand 1414 m</name>
      </trkpt>
      <trkpt lat="47.748333333333335" lon="12.280000000000001">
        <name>Heuraffelkopf 1504 m</name>
      </trkpt>
      <trkpt lat="47.7475" lon="12.275277777777779">
        <name>Abergalm 1350 m</name>
      </trkpt>
      <trkpt lat="47.76861111111111" lon="12.301388888888889">
        <name>Hofalm 970 m</name>
      </trkpt>
      <trkpt lat="47.77611111111111" lon="12.323888888888888">
        <name>Aschau im Chiemgau 615 m</name>
      </trkpt>
    </trkseg>
  </trk>
  <trk>
    <trkseg>
      <trkpt lat="47.66" lon="11.744444444444444">
        <name>Point 768 m</name>
      </trkpt>
      <trkpt lat="47.66166666666666" lon="11.711666666666666">
        <name>Rauheck 1510 m</name>
      </trkpt>
      <trkpt lat="47.65972222222222" lon="11.70361111111111">
        <name>Hirschberg-Ostgipfel 1653 m</name>
      </trkpt>
      <trkpt lat="47.660555555555554" lon="11.696111111111112">
        <name>Hirschberg 1668 m</name>
      </trkpt>
      <trkpt lat="47.66083333333333" lon="11.709722222222222">
        <name>Rauheck-Alm 1483 m</name>
      </trkpt>
      <trkpt lat="47.659444444444446" lon="11.741666666666665">
        <name>Point - Parkplatz 776 m</name>
      </trkpt>
    </trkseg>
  </trk>
  <trk>
    <trkseg>
      <trkpt lat="47.66027777777778" lon="12.581666666666667">
        <name>Winklmooshütte 1160 m</name>
      </trkpt>
      <trkpt lat="47.668055555555554" lon="12.592777777777778">
        <name>Dürrnbachalm 1331 m</name>
      </trkpt>
      <trkpt lat="47.67305555555555" lon="12.605277777777777">
        <name>Dürrnbachhorn 1776 m</name>
      </trkpt>
      <trkpt lat="47.67333333333333" lon="12.621111111111112">
        <name>Wildalphorn 1738 m</name>
      </trkpt>
      <trkpt lat="47.66361111111111" lon="12.602222222222222">
        <name>Finsterbachalm 1323 m</name>
      </trkpt>
    </trkseg>
  </trk>
  <trk>
    <trkseg>
      <trkpt lat="47.68555555555555" lon="12.056944444444445">
        <name>Arzmoosparkplatz 980 m</name>
      </trkpt>
      <trkpt lat="47.68944444444444" lon="12.054166666666667">
        <name>Untere Arzmoosalm 1000 m</name>
      </trkpt>
      <trkpt lat="47.69611111111111" lon="12.06">
        <name>Obere Arzmoosalm 1083 m</name>
      </trkpt>
      <trkpt lat="47.708333333333336" lon="12.038611111111111">
        <name>Mitteralm 1200 m</name>
      </trkpt>
      <trkpt lat="47.71361111111111" lon="12.016666666666667">
        <name>Kirchelwand 1521 m</name>
      </trkpt>
      <trkpt lat="47.715" lon="12.019166666666667">
        <name>Haidwand 1584 m</name>
      </trkpt>
      <trkpt lat="47.71666666666667" lon="12.036388888888888">
        <name>Hochsalwand 1624 m</name>
      </trkpt>
    </trkseg>
  </trk>
  <trk>
    <trkseg>
      <trkpt lat="47.56166666666666" lon="11.100833333333332">
        <name>Ettaler Sattel 869 m</name>
      </trkpt>
      <trkpt lat="47.556666666666665" lon="11.084444444444445">
        <name>Ochsensitz 1515 m</name>
      </trkpt>
      <trkpt lat="47.555277777777775" lon="11.067777777777778">
        <name>Ziegelspitz 1745 m</name>
      </trkpt>
      <trkpt lat="47.55222222222222" lon="11.061111111111112">
        <name>Notkarspitze - Vorgipfel 1795 m</name>
      </trkpt>
      <trkpt lat="47.55333333333333" lon="11.055000000000001">
        <name>Notkarspitze 1889 m</name>
      </trkpt>
      <trkpt lat="47.54472222222222" lon="11.048333333333334">
        <name>Hasenjöchl 1600 m</name>
      </trkpt>
      <trkpt lat="47.53861111111111" lon="11.046666666666667">
        <name>Brünstlkopf 1814 m</name>
      </trkpt>
      <trkpt lat="47.53388888888889" lon="11.033333333333333">
        <name>Großer Zunderkopf 1895 m</name>
      </trkpt>
      <trkpt lat="47.530277777777776" lon="11.029444444444445">
        <name>Vorderer Felderkopf 1928 m</name>
      </trkpt>
      <trkpt lat="47.53055555555555" lon="11.017222222222223">
        <name>Felderkopf 1818 m</name>
      </trkpt>
      <trkpt lat="47.53055555555555" lon="11.0075">
        <name>Windstierlkopf 1824 m</name>
      </trkpt>
      <trkpt lat="47.53333333333333" lon="11.004166666666666">
        <name>P.1772m 1772 m</name>
      </trkpt>
      <trkpt lat="47.538888888888884" lon="11.000277777777777">
        <name>Geißsprungkopf 1934 m</name>
      </trkpt>
      <trkpt lat="47.54083333333333" lon="10.999166666666666">
        <name>Kienjoch 1953 m</name>
      </trkpt>
      <trkpt lat="47.54222222222222" lon="11.01888888888889">
        <name>Kuhalm 1326 m</name>
      </trkpt>
      <trkpt lat="47.57194444444445" lon="11.027222222222223">
        <name>Graswang 867 m</name>
      </trkpt>
      <trkpt lat="47.56944444444445" lon="11.074444444444444">
        <name>Ettaler Mühle 840 m</name>
      </trkpt>
      <trkpt lat="47.56861111111112" lon="11.095555555555556">
        <name>Kloster Ettal 869 m</name>
      </trkpt>
    </trkseg>
  </trk>
  <trk>
    <trkseg>
      <trkpt lat="47.49277777777778" lon="11.061944444444444">
        <name>Parkplatz nahe Almhütte 760 m</name>
      </trkpt>
      <trkpt lat="47.50888888888889" lon="11.021944444444445">
        <name>Stepbergalm 1583 m</name>
      </trkpt>
      <trkpt lat="47.51444444444444" lon="11.012777777777778">
        <name>Hirschbühel / Hirschbichel 1935 m</name>
      </trkpt>
      <trkpt lat="47.505833333333335" lon="11.010833333333334">
        <name>Vorderer Ziegspitz 1815 m</name>
      </trkpt>
      <trkpt lat="47.50138888888889" lon="11.00361111111111">
        <name>Hoher Ziegspitz 1864 m</name>
      </trkpt>
    </trkseg>
  </trk>
  <trk>
    <trkseg>
      <trkpt lat="46.696666666666665" lon="12.084166666666667">
        <name>Pragser Wildsee / Lago di Braies 1494 m</name>
      </trkpt>
      <trkpt lat="46.67611111111111" lon="12.093055555555557">
        <name>Nabiges Loch 1950 m</name>
      </trkpt>
      <trkpt lat="46.67222222222222" lon="12.095833333333333">
        <name>Seabl 2026 m</name>
      </trkpt>
      <trkpt lat="46.67638888888889" lon="12.105833333333333">
        <name>Großer Jaufen 2480 m</name>
      </trkpt>
      <trkpt lat="46.67833333333333" lon="12.108333333333333">
        <name>Stadeltorlahne 2427 m</name>
      </trkpt>
      <trkpt lat="46.68194444444444" lon="12.108333333333333">
        <name>P. 2497 2497 m</name>
      </trkpt>
      <trkpt lat="46.68472222222222" lon="12.109444444444444">
        <name>P. 2565 2565 m</name>
      </trkpt>
      <trkpt lat="46.68694444444444" lon="12.110555555555555">
        <name>Gametzalpenkopf - Hauptgipfel / Südgipfel 2594 m</name>
      </trkpt>
    </trkseg>
  </trk>
  <trk>
    <trkseg>
      <trkpt lat="46.540277777777774" lon="11.618055555555555">
        <name>Seiser Alm / Bellavista 1844 m</name>
      </trkpt>
      <trkpt lat="46.50944444444445" lon="11.652777777777779">
        <name>Mahlknechthütte 2050 m</name>
      </trkpt>
      <trkpt lat="46.51138888888889" lon="11.6875">
        <name>Berghaus Zallinger 2037 m</name>
      </trkpt>
      <trkpt lat="46.515" lon="11.685">
        <name>Gipfel der Williamshütte 2100 m</name>
      </trkpt>
      <trkpt lat="46.504444444444445" lon="11.700833333333332">
        <name>Plattkofelhütte / Rifugio Sasso Piatto 2297 m</name>
      </trkpt>
      <trkpt lat="46.50361111111111" lon="11.699444444444445">
        <name>Eures de Fascia 2342 m</name>
      </trkpt>
      <trkpt lat="46.50083333333333" lon="11.68361111111111">
        <name>Palatsch / Palacia 2351 m</name>
      </trkpt>
      <trkpt lat="46.49916666666667" lon="11.671666666666667">
        <name>Auf der Schneid 2290 m</name>
      </trkpt>
      <trkpt lat="46.49805555555556" lon="11.661944444444444">
        <name>Cresta di Siusi 2247 m</name>
      </trkpt>
      <trkpt lat="46.49611111111111" lon="11.653611111111111">
        <name>Passo de Duron (Mahlknechtjoch) 2204 m</name>
      </trkpt>
      <trkpt lat="46.494166666666665" lon="11.651388888888889">
        <name>Col de l´Agnel 2280 m</name>
      </trkpt>
    </trkseg>
  </trk>
  <trk>
    <trkseg>
      <trkpt lat="46.53777777777778" lon="11.605">
        <name>Parkplatz Talstation Frommer 1725 m</name>
      </trkpt>
      <trkpt lat="46.527499999999996" lon="11.620000000000001">
        <name>Laurinhütte 2018 m</name>
      </trkpt>
      <trkpt lat="46.5125" lon="11.623055555555556">
        <name>Grunserbühl 2177 m</name>
      </trkpt>
      <trkpt lat="46.50694444444444" lon="11.624444444444444">
        <name>Goldknopf 2249 m</name>
      </trkpt>
      <trkpt lat="46.50944444444445" lon="11.652777777777779">
        <name>Mahlknechthütte 2050 m</name>
      </trkpt>
      <trkpt lat="46.540277777777774" lon="11.618055555555555">
        <name>Seiser Alm / Bellavista 1844 m</name>
      </trkpt>
    </trkseg>
  </trk>
  <trk>
    <trkseg>
      <trkpt lat="46.696666666666665" lon="12.084166666666667">
        <name>Pragser Wildsee / Lago di Braies 1494 m</name>
      </trkpt>
      <trkpt lat="46.703611111111115" lon="12.077222222222222">
        <name>Riedl 1563 m</name>
      </trkpt>
      <trkpt lat="46.711111111111116" lon="12.068888888888889">
        <name>Kühwiesenalm 1950 m</name>
      </trkpt>
      <trkpt lat="46.71638888888889" lon="12.068333333333333">
        <name>Kühwiesenkopf / Franz-Josefs-Höhe 2140 m</name>
      </trkpt>
      <trkpt lat="46.72027777777778" lon="12.0725">
        <name>Punkt 1965 1965 m</name>
      </trkpt>
      <trkpt lat="46.723333333333336" lon="12.077222222222222">
        <name>Punkt 2020 2020 m</name>
      </trkpt>
      <trkpt lat="46.73305555555556" lon="12.071944444444444">
        <name>Brunstriedl 2028 m</name>
      </trkpt>
      <trkpt lat="46.74722222222222" lon="12.043055555555556">
        <name>Parkplatz Brunst/Angerer Alm 1160 m</name>
      </trkpt>
      <trkpt lat="46.757777777777775" lon="12.038055555555555">
        <name>Oberolang 1090 m</name>
      </trkpt>
      <trkpt lat="46.76111111111111" lon="12.029722222222222">
        <name>Mitterolang 1050 m</name>
      </trkpt>
    </trkseg>
  </trk>
  <trk>
    <trkseg>
      <trkpt lat="46.675" lon="11.814166666666667">
        <name>Würzjoch / Passo delle Erbe 1998 m</name>
      </trkpt>
      <trkpt lat="46.66611111111111" lon="11.81388888888889">
        <name>Munt de Fornella 2080 m</name>
      </trkpt>
      <trkpt lat="46.65861111111111" lon="11.820277777777777">
        <name>Großer Peitlerkofel / Sas de Putia 2875 m</name>
      </trkpt>
      <trkpt lat="46.657777777777774" lon="11.815833333333334">
        <name>Kleiner Peitlerkofel 2813 m</name>
      </trkpt>
      <trkpt lat="46.65" lon="11.814722222222223">
        <name>Peitler Scharte - Forcella Putia  2357 m</name>
      </trkpt>
      <trkpt lat="46.64833333333333" lon="11.810555555555556">
        <name>Punkt 2485 2485 m</name>
      </trkpt>
      <trkpt lat="46.64527777777778" lon="11.805555555555557">
        <name>Östliche Ruefenspitze 2533 m</name>
      </trkpt>
      <trkpt lat="46.6425" lon="11.808055555555557">
        <name>Punkt 2452 2452 m</name>
      </trkpt>
      <trkpt lat="46.63583333333333" lon="11.808055555555557">
        <name>Kreuzkofeljoch 2340 m</name>
      </trkpt>
      <trkpt lat="46.63333333333333" lon="11.807222222222222">
        <name>Bronsoi 2399 m</name>
      </trkpt>
      <trkpt lat="46.635" lon="11.804722222222223">
        <name>Schlüterhütte 2297 m</name>
      </trkpt>
      <trkpt lat="46.63944444444444" lon="11.801944444444445">
        <name>Zendleser Kofel 2422 m</name>
      </trkpt>
    </trkseg>
  </trk>
  <trk>
    <trkseg>
      <trkpt lat="46.63583333333333" lon="11.765833333333333">
        <name>Zanser Alm 1685 m</name>
      </trkpt>
      <trkpt lat="46.649166666666666" lon="11.753333333333334">
        <name>P. 2331 2331 m</name>
      </trkpt>
      <trkpt lat="46.65138888888889" lon="11.766388888888889">
        <name>Kofelalm - höchste Erhebung 2497 m</name>
      </trkpt>
      <trkpt lat="46.65333333333333" lon="11.775">
        <name>Tullen 2652 m</name>
      </trkpt>
      <trkpt lat="46.65333333333333" lon="11.768333333333334">
        <name>Aferer Geisler Punkt 2500 2500 m</name>
      </trkpt>
      <trkpt lat="46.65333333333333" lon="11.764722222222222">
        <name>Aferer Geisler Punkt 2535 2535 m</name>
      </trkpt>
    </trkseg>
  </trk>
  <trk>
    <trkseg>
      <trkpt lat="46.697222222222216" lon="11.934722222222222">
        <name>San Vigilio / Sankt Vigil 1210 m</name>
      </trkpt>
      <trkpt lat="46.70027777777778" lon="11.998333333333333">
        <name>Passo Somamunt / Kreuzjoch 2283 m</name>
      </trkpt>
      <trkpt lat="46.69638888888888" lon="11.997777777777777">
        <name>Östliche Paracia 2452 m</name>
      </trkpt>
      <trkpt lat="46.69888888888889" lon="11.98861111111111">
        <name>Monte Paracia 2444 m</name>
      </trkpt>
      <trkpt lat="46.69305555555555" lon="12.011388888888888">
        <name>P. 2254 2254 m</name>
      </trkpt>
      <trkpt lat="46.69361111111111" lon="12.01361111111111">
        <name>Col Boccia 2335 m</name>
      </trkpt>
      <trkpt lat="46.711666666666666" lon="12.0175">
        <name>Flatschkofel 2416 m</name>
      </trkpt>
      <trkpt lat="46.70388888888889" lon="12.011388888888888">
        <name>Lapedurscharte 2213 m</name>
      </trkpt>
      <trkpt lat="46.70305555555556" lon="11.997222222222222">
        <name>Lago Fojedöra / Hochalpensee 2252 m</name>
      </trkpt>
    </trkseg>
  </trk>
  <trk>
    <trkseg>
      <trkpt lat="47.71527777777778" lon="11.960555555555555">
        <name>Birkenstein 853 m</name>
      </trkpt>
      <trkpt lat="47.714444444444446" lon="11.980555555555556">
        <name>Kesselalm 1285 m</name>
      </trkpt>
      <trkpt lat="47.719166666666666" lon="11.986388888888888">
        <name>Hubertushütte 1542 m</name>
      </trkpt>
      <trkpt lat="47.721111111111114" lon="11.987777777777778">
        <name>Breitenstein 1622 m</name>
      </trkpt>
      <trkpt lat="47.720555555555556" lon="11.9825">
        <name>Bockstein 1575 m</name>
      </trkpt>
      <trkpt lat="47.711111111111116" lon="11.995555555555555">
        <name>Aiblinger Hütte 1288 m</name>
      </trkpt>
      <trkpt lat="47.705555555555556" lon="11.998888888888889">
        <name>Türkenköpfl / Elbacher Kreuz 1512 m</name>
      </trkpt>
      <trkpt lat="47.708333333333336" lon="11.989999999999998">
        <name>Kirchwand 1479 m</name>
      </trkpt>
      <trkpt lat="47.711111111111116" lon="11.987499999999999">
        <name>Schweinsberg 1514 m</name>
      </trkpt>
    </trkseg>
  </trk>
  <trk>
    <trkseg>
      <trkpt lat="46.55" lon="11.808333333333334">
        <name>Grödner Joch / Passo di Gardena 2121 m</name>
      </trkpt>
      <trkpt lat="46.55833333333333" lon="11.80638888888889">
        <name>Große Cirspitze / Gran Cir 2592 m</name>
      </trkpt>
      <trkpt lat="46.553888888888885" lon="11.8">
        <name>Dantercepies Bergstation 2283 m</name>
      </trkpt>
      <trkpt lat="46.55638888888888" lon="11.800277777777778">
        <name>Klettersteig Kleine Cirspitze 2450 m</name>
      </trkpt>
      <trkpt lat="46.55722222222222" lon="11.801111111111112">
        <name>Kleine Cirspitze / Cir V 2520 m</name>
      </trkpt>
      <trkpt lat="46.549166666666665" lon="11.793055555555556">
        <name>Bustac 2252 m</name>
      </trkpt>
      <trkpt lat="46.53861111111111" lon="11.783333333333333">
        <name>Sela de Culac 2018 m</name>
      </trkpt>
      <trkpt lat="46.54" lon="11.780833333333334">
        <name>Piz Culac 2086 m</name>
      </trkpt>
    </trkseg>
  </trk>
  <trk>
    <trkseg>
      <trkpt lat="46.70472222222222" lon="12.21861111111111">
        <name>Toblacher See 1258 m</name>
      </trkpt>
      <trkpt lat="46.69333333333333" lon="12.20111111111111">
        <name>Sarlhütte 1720 m</name>
      </trkpt>
      <trkpt lat="46.68694444444444" lon="12.184722222222222">
        <name>Sarlriedl 2099 m</name>
      </trkpt>
      <trkpt lat="46.69277777777778" lon="12.186388888888889">
        <name>Messnerköpfe  2199 m</name>
      </trkpt>
      <trkpt lat="46.69833333333333" lon="12.17861111111111">
        <name>Lungkofel 2282 m</name>
      </trkpt>
      <trkpt lat="46.70138888888889" lon="12.185833333333333">
        <name>Sarlsattel 2238 m</name>
      </trkpt>
      <trkpt lat="46.70277777777778" lon="12.193055555555556">
        <name>Sarlkofel 2378 m</name>
      </trkpt>
      <trkpt lat="46.70166666666667" lon="12.19111111111111">
        <name>Sarlkofel - Westgipfel 2361 m</name>
      </trkpt>
      <trkpt lat="46.7075" lon="12.19">
        <name>Suisridl 2013 m</name>
      </trkpt>
      <trkpt lat="46.70916666666667" lon="12.19">
        <name>Suiskopf 2052 m</name>
      </trkpt>
      <trkpt lat="46.724722222222226" lon="12.221111111111112">
        <name>Neutoblach 1210 m</name>
      </trkpt>
      <trkpt lat="46.73416666666667" lon="12.222777777777777">
        <name>Toblach 1240 m</name>
      </trkpt>
    </trkseg>
  </trk>
  <trk>
    <trkseg>
      <trkpt lat="46.585" lon="11.903333333333334">
        <name>La Villa 1416 m</name>
      </trkpt>
      <trkpt lat="46.57972222222222" lon="11.895833333333332">
        <name>Schloß Colz 1460 m</name>
      </trkpt>
      <trkpt lat="46.58583333333333" lon="11.880555555555556">
        <name>Ütia Gherdenacia 2050 m</name>
      </trkpt>
      <trkpt lat="46.5775" lon="11.868611111111111">
        <name>Kreuz P.2428 2428 m</name>
      </trkpt>
      <trkpt lat="46.57694444444445" lon="11.866111111111111">
        <name>Para dai Giai 2497 m</name>
      </trkpt>
      <trkpt lat="46.57611111111112" lon="11.858055555555556">
        <name>Punkt 2635 2635 m</name>
      </trkpt>
      <trkpt lat="46.57916666666667" lon="11.856666666666666">
        <name>Forcella de Gherdenacia 2548 m</name>
      </trkpt>
      <trkpt lat="46.57694444444445" lon="11.8375">
        <name>Forcella de Ciampei 2366 m</name>
      </trkpt>
      <trkpt lat="46.56805555555556" lon="11.839166666666667">
        <name>Sas Ciampei 2654 m</name>
      </trkpt>
      <trkpt lat="46.56305555555555" lon="11.835277777777778">
        <name>Sas Ciampac 2671 m</name>
      </trkpt>
      <trkpt lat="46.56166666666666" lon="11.824444444444444">
        <name>Col Toronn 2655 m</name>
      </trkpt>
      <trkpt lat="46.56111111111111" lon="11.81638888888889">
        <name>Cirjoch 2465 m</name>
      </trkpt>
      <trkpt lat="46.55611111111111" lon="11.810833333333335">
        <name>Jimmy Hütte 2222 m</name>
      </trkpt>
      <trkpt lat="46.55" lon="11.808333333333334">
        <name>Grödner Joch / Passo di Gardena 2121 m</name>
      </trkpt>
      <trkpt lat="46.54361111111111" lon="11.770555555555557">
        <name>Plan 1621 m</name>
      </trkpt>
    </trkseg>
  </trk>
  <trk>
    <trkseg>
      <trkpt lat="46.696666666666665" lon="12.084166666666667">
        <name>Pragser Wildsee / Lago di Braies 1494 m</name>
      </trkpt>
      <trkpt lat="46.69222222222222" lon="12.065555555555557">
        <name>Grünwaldalm / Malga Foresta 1590 m</name>
      </trkpt>
      <trkpt lat="46.700833333333335" lon="12.063055555555556">
        <name>Punkt 2033 2033 m</name>
      </trkpt>
      <trkpt lat="46.69916666666666" lon="12.064444444444446">
        <name>Schwarzberg 2142 m</name>
      </trkpt>
      <trkpt lat="46.703611111111115" lon="12.058333333333334">
        <name>Spitzköfel 2230 m</name>
      </trkpt>
      <trkpt lat="46.705555555555556" lon="12.05388888888889">
        <name>Punkt 2280 2280 m</name>
      </trkpt>
      <trkpt lat="46.70861111111111" lon="12.054166666666667">
        <name>Pragser Furkel 2225 m</name>
      </trkpt>
      <trkpt lat="46.71277777777778" lon="12.052777777777779">
        <name>Kaserkopf 2414 m</name>
      </trkpt>
      <trkpt lat="46.712500000000006" lon="12.045">
        <name>Hochalpenkopf 2542 m</name>
      </trkpt>
      <trkpt lat="46.71222222222222" lon="12.036944444444444">
        <name>Maurerkopf - Ostgipfel 2560 m</name>
      </trkpt>
      <trkpt lat="46.712500000000006" lon="12.034166666666666">
        <name>Maurerkopf 2567 m</name>
      </trkpt>
      <trkpt lat="46.71222222222222" lon="12.021944444444445">
        <name>Flatschkofelscharte 2223 m</name>
      </trkpt>
    </trkseg>
  </trk>
  <trk>
    <trkseg>
      <trkpt lat="46.57944444444445" lon="11.715555555555556">
        <name>Punkt 2125 2125 m</name>
      </trkpt>
      <trkpt lat="46.58027777777778" lon="11.712777777777777">
        <name>Seurasas 2175 m</name>
      </trkpt>
      <trkpt lat="46.58027777777778" lon="11.724722222222223">
        <name>Pitschberg / Pic 2363 m</name>
      </trkpt>
      <trkpt lat="46.58777777777778" lon="11.722777777777777">
        <name>Cuca 2150 m</name>
      </trkpt>
      <trkpt lat="46.59111111111111" lon="11.737222222222222">
        <name>Rifugio Fermeda 2111 m</name>
      </trkpt>
      <trkpt lat="46.605555555555554" lon="11.765277777777778">
        <name>Sass Rigais - Südwestwand Klettersteig 2650 m</name>
      </trkpt>
      <trkpt lat="46.60888888888889" lon="11.766666666666667">
        <name>Sas Rigais 3025 m</name>
      </trkpt>
      <trkpt lat="46.58722222222222" lon="11.758333333333333">
        <name>Regensburger Hütte/Rifugio Firenze 2037 m</name>
      </trkpt>
      <trkpt lat="46.585" lon="11.745555555555555">
        <name>Almhotel Col Reiser  2106 m</name>
      </trkpt>
      <trkpt lat="46.58527777777778" lon="11.745277777777776">
        <name>Col Raiser 2106 m</name>
      </trkpt>
      <trkpt lat="46.58111111111111" lon="11.740277777777777">
        <name>Gamsblut Alm 1952 m</name>
      </trkpt>
      <trkpt lat="46.565" lon="11.736666666666666">
        <name>Col Raiser Talstation 1557 m</name>
      </trkpt>
    </trkseg>
  </trk>
  <trk>
    <trkseg>
      <trkpt lat="46.565" lon="11.736666666666666">
        <name>Col Raiser Talstation 1557 m</name>
      </trkpt>
      <trkpt lat="46.57638888888889" lon="11.747499999999999">
        <name>Sangon Alm 1823 m</name>
      </trkpt>
      <trkpt lat="46.573055555555555" lon="11.75">
        <name>Rifugio Juac 1903 m</name>
      </trkpt>
      <trkpt lat="46.573055555555555" lon="11.77138888888889">
        <name>Rifugio Stevia 2312 m</name>
      </trkpt>
      <trkpt lat="46.57916666666667" lon="11.765">
        <name>Pela de Vit 2493 m</name>
      </trkpt>
      <trkpt lat="46.580000000000005" lon="11.766388888888889">
        <name>Monte Stevia - Südgipfel 2552 m</name>
      </trkpt>
      <trkpt lat="46.580555555555556" lon="11.766944444444444">
        <name>Monte Stevia 2555 m</name>
      </trkpt>
      <trkpt lat="46.58861111111111" lon="11.776111111111112">
        <name>Montijela 2644 m</name>
      </trkpt>
      <trkpt lat="46.586111111111116" lon="11.783333333333333">
        <name>Col dala Pieres 2760 m</name>
      </trkpt>
      <trkpt lat="46.58888888888889" lon="11.790555555555555">
        <name>Forces de Sieles 2505 m</name>
      </trkpt>
      <trkpt lat="46.59" lon="11.829166666666666">
        <name>Rifugio Puez 2475 m</name>
      </trkpt>
      <trkpt lat="46.564166666666665" lon="11.773055555555556">
        <name>Vallunga - Parcheggio 1625 m</name>
      </trkpt>
    </trkseg>
  </trk>
  <trk>
    <trkseg>
      <trkpt lat="46.33861111111111" lon="11.559166666666668">
        <name>Dos Capel 2200 m</name>
      </trkpt>
      <trkpt lat="46.32972222222222" lon="11.555000000000001">
        <name>Monte Agnello 2358 m</name>
      </trkpt>
      <trkpt lat="46.32666666666667" lon="11.557777777777778">
        <name>Monte Agnello - Südgipfel 2340 m</name>
      </trkpt>
      <trkpt lat="46.31861111111112" lon="11.566111111111113">
        <name>Pelanzana 2169 m</name>
      </trkpt>
      <trkpt lat="46.31111111111111" lon="11.571111111111112">
        <name>Forcella di Pelanzana 2181 m</name>
      </trkpt>
      <trkpt lat="46.316111111111105" lon="11.557500000000001">
        <name>Pizzancae 2162 m</name>
      </trkpt>
      <trkpt lat="46.32611111111112" lon="11.536944444444444">
        <name>Censi 2215 m</name>
      </trkpt>
      <trkpt lat="46.32027777777778" lon="11.528333333333334">
        <name>Doss dei Branchi 2274 m</name>
      </trkpt>
      <trkpt lat="46.31666666666667" lon="11.527222222222223">
        <name>P. 2259 2259 m</name>
      </trkpt>
      <trkpt lat="46.31194444444444" lon="11.523888888888889">
        <name>Cornacci 2198 m</name>
      </trkpt>
    </trkseg>
  </trk>
  <trk>
    <trkseg>
      <trkpt lat="46.808055555555555" lon="12.371666666666668">
        <name>Innervillgraten 1380 m</name>
      </trkpt>
      <trkpt lat="46.82694444444445" lon="12.405277777777778">
        <name>Kesseberg 2589 m</name>
      </trkpt>
      <trkpt lat="46.82972222222222" lon="12.413333333333334">
        <name>Nöckl 2621 m</name>
      </trkpt>
      <trkpt lat="46.83416666666667" lon="12.426388888888889">
        <name>Hohes Kreuz 2746 m</name>
      </trkpt>
      <trkpt lat="46.83166666666667" lon="12.431111111111111">
        <name>Hohes Haus 2784 m</name>
      </trkpt>
      <trkpt lat="46.82416666666667" lon="12.431666666666667">
        <name>Gipfel zwischen Hohes Haus/Gabesitten 2661 m</name>
      </trkpt>
      <trkpt lat="46.81805555555556" lon="12.424166666666666">
        <name>Gabesitten 2665 m</name>
      </trkpt>
      <trkpt lat="46.78666666666666" lon="12.42861111111111">
        <name>Außervillgraten 1287 m</name>
      </trkpt>
      <trkpt lat="46.75055555555556" lon="12.433055555555555">
        <name>Skizentrum Sillian 1080 m</name>
      </trkpt>
      <trkpt lat="46.74666666666667" lon="12.418055555555554">
        <name>Sillian 1085 m</name>
      </trkpt>
    </trkseg>
  </trk>
  <trk>
    <trkseg>
      <trkpt lat="46.7725" lon="12.556944444444445">
        <name>Anras 1261 m</name>
      </trkpt>
      <trkpt lat="46.79111111111111" lon="12.521666666666668">
        <name>Punkt 2042 2042 m</name>
      </trkpt>
      <trkpt lat="46.78638888888889" lon="12.527500000000002">
        <name>Spielbichl 2072 m</name>
      </trkpt>
    </trkseg>
  </trk>
  <trk>
    <trkseg>
      <trkpt lat="46.75194444444445" lon="12.440277777777778">
        <name>Burg Heinfels 1130 m</name>
      </trkpt>
      <trkpt lat="46.75388888888889" lon="12.464444444444444">
        <name>Tessenberg Kirche St. Johannes 1340 m</name>
      </trkpt>
      <trkpt lat="46.769999999999996" lon="12.449166666666667">
        <name>Tessenberger Alm 1945 m</name>
      </trkpt>
      <trkpt lat="46.775555555555556" lon="12.45611111111111">
        <name>Tessenberger See 2126 m</name>
      </trkpt>
      <trkpt lat="46.78194444444444" lon="12.470833333333333">
        <name>Steinrast 2253 m</name>
      </trkpt>
      <trkpt lat="46.782777777777774" lon="12.478333333333333">
        <name>Rautscharte 2140 m</name>
      </trkpt>
      <trkpt lat="46.776944444444446" lon="12.494166666666667">
        <name>Bichl 2056 m</name>
      </trkpt>
      <trkpt lat="46.750277777777775" lon="12.486944444444443">
        <name>Strassen 1099 m</name>
      </trkpt>
    </trkseg>
  </trk>
  <trk>
    <trkseg>
      <trkpt lat="47.402499999999996" lon="11.566666666666668">
        <name>Alpengasthof Eng 1203 m</name>
      </trkpt>
      <trkpt lat="47.39666666666667" lon="11.578055555555554">
        <name>Binsalm-Niederleger 1502 m</name>
      </trkpt>
      <trkpt lat="47.39472222222222" lon="11.58388888888889">
        <name>Binsalm-Hochleger 1645 m</name>
      </trkpt>
      <trkpt lat="47.38777777777778" lon="11.595277777777778">
        <name>Westliches Lamsenjoch 1940 m</name>
      </trkpt>
      <trkpt lat="47.38027777777778" lon="11.603333333333333">
        <name>Lamsenjochhütte 1953 m</name>
      </trkpt>
      <trkpt lat="47.380833333333335" lon="11.59388888888889">
        <name>Lamsscharte 2270 m</name>
      </trkpt>
      <trkpt lat="47.38305555555556" lon="11.590833333333334">
        <name>Lamsenspitze 2508 m</name>
      </trkpt>
      <trkpt lat="47.38166666666667" lon="11.5875">
        <name>Mitterspitze 2494 m</name>
      </trkpt>
      <trkpt lat="47.3825" lon="11.58388888888889">
        <name>Schafkarspitze 2505 m</name>
      </trkpt>
      <trkpt lat="47.37833333333333" lon="11.588055555555556">
        <name>Mitterkarlspitze 2418 m</name>
      </trkpt>
      <trkpt lat="47.37777777777778" lon="11.598055555555556">
        <name>Brudertunnel 2154 m</name>
      </trkpt>
    </trkseg>
  </trk>
  <trk>
    <trkseg>
      <trkpt lat="46.719722222222224" lon="12.525555555555556">
        <name>Rauchenbach 1515 m</name>
      </trkpt>
      <trkpt lat="46.70055555555556" lon="12.540277777777778">
        <name>Öfenspitze 2334 m</name>
      </trkpt>
      <trkpt lat="46.69333333333333" lon="12.534444444444444">
        <name>Hochegg 2477 m</name>
      </trkpt>
      <trkpt lat="46.723888888888894" lon="12.496388888888887">
        <name>Kartitsch 1353 m</name>
      </trkpt>
    </trkseg>
  </trk>
  <trk>
    <trkseg>
      <trkpt lat="46.70944444444445" lon="12.614722222222222">
        <name>Obertilliach 1450 m</name>
      </trkpt>
      <trkpt lat="46.70777777777778" lon="12.635833333333332">
        <name>Obertilliach/Rals 1426 m</name>
      </trkpt>
      <trkpt lat="46.72666666666667" lon="12.65388888888889">
        <name>Steinrastl 2184 m</name>
      </trkpt>
      <trkpt lat="46.733333333333334" lon="12.664722222222222">
        <name>Gumpedall 2092 m</name>
      </trkpt>
      <trkpt lat="46.74" lon="12.671666666666667">
        <name>Eggenkofel - Westgipfel 2573 m</name>
      </trkpt>
      <trkpt lat="46.74611111111111" lon="12.648333333333333">
        <name>Tamerlanhöhe 2376 m</name>
      </trkpt>
      <trkpt lat="46.75222222222222" lon="12.644166666666667">
        <name>Gedeindlspitze 2327 m</name>
      </trkpt>
      <trkpt lat="46.73694444444445" lon="12.641944444444444">
        <name>Ochsengartenalm 1747 m</name>
      </trkpt>
      <trkpt lat="46.71027777777778" lon="12.618333333333334">
        <name>Golzentipp Talstation/Parkplatz 1410 m</name>
      </trkpt>
      <trkpt lat="46.70944444444445" lon="12.614722222222222">
        <name>Obertilliach 1450 m</name>
      </trkpt>
    </trkseg>
  </trk>
  <trk>
    <trkseg>
      <trkpt lat="46.70944444444445" lon="12.614722222222222">
        <name>Obertilliach 1450 m</name>
      </trkpt>
      <trkpt lat="46.72416666666667" lon="12.623611111111112">
        <name>Connyalm 2070 m</name>
      </trkpt>
      <trkpt lat="46.73722222222222" lon="12.618055555555555">
        <name>Morgenrast 2109 m</name>
      </trkpt>
      <trkpt lat="46.74138888888889" lon="12.621111111111112">
        <name>Kofelspitz 2185 m</name>
      </trkpt>
      <trkpt lat="46.7325" lon="12.616111111111111">
        <name>Punkt 2261 2261 m</name>
      </trkpt>
      <trkpt lat="46.740833333333335" lon="12.60611111111111">
        <name>Alplspitze 2296 m</name>
      </trkpt>
      <trkpt lat="46.73416666666667" lon="12.604166666666666">
        <name>Golzentipp 2317 m</name>
      </trkpt>
      <trkpt lat="46.731388888888894" lon="12.597777777777779">
        <name>Gipfel südwestlich Golzentipp 2275 m</name>
      </trkpt>
      <trkpt lat="46.728611111111114" lon="12.592222222222222">
        <name>Pfannegg 2248 m</name>
      </trkpt>
      <trkpt lat="46.73722222222222" lon="12.585277777777778">
        <name>P.2113 2113 m</name>
      </trkpt>
      <trkpt lat="46.73972222222222" lon="12.58361111111111">
        <name>Spitzenstein 2265 m</name>
      </trkpt>
      <trkpt lat="46.74111111111111" lon="12.582222222222223">
        <name>Spitzenstein - Nordgipfel / Kreuzgipfel 2257 m</name>
      </trkpt>
      <trkpt lat="46.72833333333333" lon="12.57638888888889">
        <name>Punkt 2099 2099 m</name>
      </trkpt>
      <trkpt lat="46.7275" lon="12.561666666666667">
        <name>Dorfberg 2115 m</name>
      </trkpt>
      <trkpt lat="46.71472222222223" lon="12.561388888888889">
        <name>Leiten 1430 m</name>
      </trkpt>
      <trkpt lat="46.70944444444445" lon="12.614722222222222">
        <name>Obertilliach 1450 m</name>
      </trkpt>
    </trkseg>
  </trk>
  <trk>
    <trkseg>
      <trkpt lat="46.99916666666667" lon="12.732222222222223">
        <name>Gernot-Röhr-Biwak 2926 m</name>
      </trkpt>
      <trkpt lat="46.99861111111111" lon="12.731944444444444">
        <name>Kesselkeessattel 2912 m</name>
      </trkpt>
      <trkpt lat="46.996944444444445" lon="12.73">
        <name>Böses Weibl - Östlicher Vorgipfel 2996 m</name>
      </trkpt>
      <trkpt lat="46.99611111111111" lon="12.724444444444444">
        <name>Böses Weibl Südgipfel 3116 m</name>
      </trkpt>
      <trkpt lat="46.99722222222222" lon="12.723333333333333">
        <name>Böses Weibl 3119 m</name>
      </trkpt>
      <trkpt lat="46.99583333333334" lon="12.719166666666666">
        <name>Tschadinsattel 2987 m</name>
      </trkpt>
      <trkpt lat="46.99194444444444" lon="12.709166666666667">
        <name>Tschadinhorn 3017 m</name>
      </trkpt>
      <trkpt lat="46.99" lon="12.69138888888889">
        <name>Schönleitenspitze 2810 m</name>
      </trkpt>
      <trkpt lat="46.986666666666665" lon="12.64472222222222">
        <name>Oberlesach 1440 m</name>
      </trkpt>
    </trkseg>
  </trk>
  <trk>
    <trkseg>
      <trkpt lat="47.021388888888886" lon="12.688611111111111">
        <name>Lucknerhaus 1918 m</name>
      </trkpt>
      <trkpt lat="47.015277777777776" lon="12.721944444444444">
        <name>Peischlachtörl 2484 m</name>
      </trkpt>
      <trkpt lat="47.02027777777778" lon="12.748333333333333">
        <name>Gremul 2909 m</name>
      </trkpt>
      <trkpt lat="47.013888888888886" lon="12.742777777777777">
        <name>Tramerkamp 2974 m</name>
      </trkpt>
      <trkpt lat="47.01222222222222" lon="12.73611111111111">
        <name>Zinggetz 2971 m</name>
      </trkpt>
      <trkpt lat="47.00555555555555" lon="12.737777777777778">
        <name>Nördlicher Gridenkarkopf 3020 m</name>
      </trkpt>
      <trkpt lat="47.00222222222222" lon="12.733888888888888">
        <name>Südlicher Gridenkarkopf 3031 m</name>
      </trkpt>
      <trkpt lat="46.99861111111111" lon="12.731944444444444">
        <name>Kesselkeessattel 2912 m</name>
      </trkpt>
      <trkpt lat="46.985" lon="12.734166666666665">
        <name>Kristallkopf 3160 m</name>
      </trkpt>
      <trkpt lat="46.996944444444445" lon="12.73">
        <name>Böses Weibl - Östlicher Vorgipfel 2996 m</name>
      </trkpt>
      <trkpt lat="46.99916666666667" lon="12.732222222222223">
        <name>Gernot-Röhr-Biwak 2926 m</name>
      </trkpt>
    </trkseg>
  </trk>
  <trk>
    <trkseg>
      <trkpt lat="46.96194444444445" lon="12.746388888888887">
        <name>Gößnitzkopfbiwak 2795 m</name>
      </trkpt>
      <trkpt lat="46.966944444444444" lon="12.744166666666667">
        <name>Gößnitzkopf 3091 m</name>
      </trkpt>
      <trkpt lat="46.969166666666666" lon="12.741666666666665">
        <name>Südliche Talleitenspitze 3119 m</name>
      </trkpt>
      <trkpt lat="46.96527777777778" lon="12.733055555555556">
        <name>Glödistörl 2830 m</name>
      </trkpt>
      <trkpt lat="46.96194444444445" lon="12.746388888888887">
        <name>Gößnitzkopfbiwak 2795 m</name>
      </trkpt>
    </trkseg>
  </trk>
  <trk>
    <trkseg>
      <trkpt lat="46.95388888888889" lon="12.781111111111112">
        <name>Adolf-Nossberger Hütte 2488 m</name>
      </trkpt>
      <trkpt lat="46.950833333333335" lon="12.763055555555555">
        <name>Keeskopf 3081 m</name>
      </trkpt>
      <trkpt lat="46.95611111111111" lon="12.76">
        <name>Südlicher Klammerkopf 3117 m</name>
      </trkpt>
      <trkpt lat="46.95805555555556" lon="12.760277777777778">
        <name>Westlicher Klammerkopf 3126 m</name>
      </trkpt>
      <trkpt lat="46.95888888888889" lon="12.762222222222222">
        <name>Hoher Klammerkopf 3155 m</name>
      </trkpt>
      <trkpt lat="46.95944444444445" lon="12.764166666666666">
        <name>Östlicher Klammerkopf 3153 m</name>
      </trkpt>
      <trkpt lat="46.961666666666666" lon="12.766666666666667">
        <name>Mittlerer Niederer Klammerkopf 3108 m</name>
      </trkpt>
      <trkpt lat="46.96277777777778" lon="12.771944444444445">
        <name>Klammerscharte 2930 m</name>
      </trkpt>
      <trkpt lat="46.96055555555556" lon="12.749722222222221">
        <name>Gößnitzscharte 2737 m</name>
      </trkpt>
      <trkpt lat="46.96194444444445" lon="12.746388888888887">
        <name>Gößnitzkopfbiwak 2795 m</name>
      </trkpt>
    </trkseg>
  </trk>
  <trk>
    <trkseg>
      <trkpt lat="46.95388888888889" lon="12.781111111111112">
        <name>Adolf-Nossberger Hütte 2488 m</name>
      </trkpt>
      <trkpt lat="46.94138888888889" lon="12.78138888888889">
        <name>Hohe Gradenscharte 2803 m</name>
      </trkpt>
      <trkpt lat="46.93527777777778" lon="12.784444444444444">
        <name>Kreuzseescharte 2800 m</name>
      </trkpt>
      <trkpt lat="46.930277777777775" lon="12.799722222222222">
        <name>Wangenitzseehütte 2508 m</name>
      </trkpt>
      <trkpt lat="46.939166666666665" lon="12.79111111111111">
        <name>Östlicher / Nieder Perschitzkopf 3077 m</name>
      </trkpt>
      <trkpt lat="46.94138888888889" lon="12.78138888888889">
        <name>Hohe Gradenscharte 2803 m</name>
      </trkpt>
      <trkpt lat="46.95388888888889" lon="12.781111111111112">
        <name>Adolf-Nossberger Hütte 2488 m</name>
      </trkpt>
    </trkseg>
  </trk>
  <trk>
    <trkseg>
      <trkpt lat="46.93472222222222" lon="12.746666666666666">
        <name>Lienzer Hütte 1977 m</name>
      </trkpt>
      <trkpt lat="46.93527777777778" lon="12.784444444444444">
        <name>Kreuzseescharte 2800 m</name>
      </trkpt>
      <trkpt lat="46.939722222222215" lon="12.786666666666667">
        <name>Hoher Perschitzkopf 3125 m</name>
      </trkpt>
      <trkpt lat="46.94" lon="12.792777777777777">
        <name>Perschitzscharte 2974 m</name>
      </trkpt>
      <trkpt lat="46.94194444444444" lon="12.796388888888888">
        <name>Kruckelkopf 3181 m</name>
      </trkpt>
      <trkpt lat="46.95388888888889" lon="12.781111111111112">
        <name>Adolf-Nossberger Hütte 2488 m</name>
      </trkpt>
    </trkseg>
  </trk>
  <trk>
    <trkseg>
      <trkpt lat="46.86388888888889" lon="12.788611111111111">
        <name>Zettersfeld 1820 m</name>
      </trkpt>
      <trkpt lat="46.907222222222224" lon="12.773611111111112">
        <name>Trelebitschalm 1975 m</name>
      </trkpt>
      <trkpt lat="46.93472222222222" lon="12.746666666666666">
        <name>Lienzer Hütte 1977 m</name>
      </trkpt>
    </trkseg>
  </trk>
  <trk>
    <trkseg>
      <trkpt lat="46.925" lon="12.699166666666667">
        <name>Hochschoberhütte 2322 m</name>
      </trkpt>
      <trkpt lat="46.942499999999995" lon="12.689722222222223">
        <name>Staniskascharte 2930 m</name>
      </trkpt>
      <trkpt lat="46.94083333333333" lon="12.686111111111112">
        <name>Leibnitzer Rotspitzen - Hauptgipfel 3101 m</name>
      </trkpt>
      <trkpt lat="46.940555555555555" lon="12.685833333333333">
        <name>Leibnitzer Rotspitzen - Nördlicher Mittelgipfel 3095 m</name>
      </trkpt>
      <trkpt lat="46.94" lon="12.685277777777777">
        <name>Leibnitzer Rotspitzen - Südlicher Mittelgipfel 3099 m</name>
      </trkpt>
      <trkpt lat="46.943888888888885" lon="12.695277777777777">
        <name>Hochschober - Nordwestlicher Seitengipfel 3185 m</name>
      </trkpt>
      <trkpt lat="46.942499999999995" lon="12.698611111111111">
        <name>Hochschober 3242 m</name>
      </trkpt>
      <trkpt lat="46.94583333333333" lon="12.705277777777777">
        <name>Klein Schober 3119 m</name>
      </trkpt>
      <trkpt lat="46.94777777777777" lon="12.708888888888888">
        <name>Schobertörl 2898 m</name>
      </trkpt>
      <trkpt lat="46.94972222222222" lon="12.711388888888887">
        <name>Debantgrat Südgipfel 3052 m</name>
      </trkpt>
      <trkpt lat="46.93472222222222" lon="12.746666666666666">
        <name>Lienzer Hütte 1977 m</name>
      </trkpt>
    </trkseg>
  </trk>
  <trk>
    <trkseg>
      <trkpt lat="46.907222222222224" lon="12.773611111111112">
        <name>Trelebitschalm 1975 m</name>
      </trkpt>
      <trkpt lat="46.902499999999996" lon="12.753333333333334">
        <name>Trelebitschsee 2336 m</name>
      </trkpt>
      <trkpt lat="46.90888888888889" lon="12.742222222222221">
        <name>Trelebitschkopf 2838 m</name>
      </trkpt>
      <trkpt lat="46.91222222222222" lon="12.738055555555555">
        <name>Kleine Rotspitze 2838 m</name>
      </trkpt>
      <trkpt lat="46.91694444444444" lon="12.731666666666667">
        <name>Alkuser Rotspitze 3053 m</name>
      </trkpt>
      <trkpt lat="46.91972222222222" lon="12.725">
        <name>Große Mirnitzspitze 2985 m</name>
      </trkpt>
      <trkpt lat="46.91583333333333" lon="12.71861111111111">
        <name>Barreneck 2954 m</name>
      </trkpt>
      <trkpt lat="46.915277777777774" lon="12.712777777777777">
        <name>Hoher Prijakt 3064 m</name>
      </trkpt>
      <trkpt lat="46.913888888888884" lon="12.709166666666667">
        <name>Nieder Prijakt 3056 m</name>
      </trkpt>
      <trkpt lat="46.925" lon="12.699166666666667">
        <name>Hochschoberhütte 2322 m</name>
      </trkpt>
    </trkseg>
  </trk>
  <trk>
    <trkseg>
      <trkpt lat="46.86388888888889" lon="12.788611111111111">
        <name>Zettersfeld 1820 m</name>
      </trkpt>
      <trkpt lat="46.87861111111111" lon="12.786944444444444">
        <name>Schoberköpfl 2278 m</name>
      </trkpt>
      <trkpt lat="46.88472222222222" lon="12.778333333333334">
        <name>Goisele(mandl) 2433 m</name>
      </trkpt>
      <trkpt lat="46.893055555555556" lon="12.7725">
        <name>Wellkopf 2472 m</name>
      </trkpt>
      <trkpt lat="46.891666666666666" lon="12.766666666666667">
        <name>Neualplseen 2438 m</name>
      </trkpt>
      <trkpt lat="46.89888888888889" lon="12.765277777777778">
        <name>Östlicher Sattelkopf 2651 m</name>
      </trkpt>
      <trkpt lat="46.89888888888889" lon="12.762777777777778">
        <name>Mittlerer Sattelkopf 2697 m</name>
      </trkpt>
      <trkpt lat="46.897777777777776" lon="12.760555555555555">
        <name>Westlicher Sattelkopf 2685 m</name>
      </trkpt>
      <trkpt lat="46.89722222222222" lon="12.757222222222222">
        <name>Westlichster Sattelkopf 2684 m</name>
      </trkpt>
      <trkpt lat="46.89555555555555" lon="12.749166666666666">
        <name>Schleinitz 2905 m</name>
      </trkpt>
      <trkpt lat="46.89333333333333" lon="12.739444444444443">
        <name>Alkuser Scharte 2631 m</name>
      </trkpt>
      <trkpt lat="46.89222222222222" lon="12.737777777777778">
        <name>Rotgabele 2696 m</name>
      </trkpt>
      <trkpt lat="46.90555555555555" lon="12.739999999999998">
        <name>Trelebitschtörl 2726 m</name>
      </trkpt>
      <trkpt lat="46.902499999999996" lon="12.753333333333334">
        <name>Trelebitschsee 2336 m</name>
      </trkpt>
      <trkpt lat="46.86555555555556" lon="12.809166666666668">
        <name>Naturfreunde Haus Vinzenz Biedner 1800 m</name>
      </trkpt>
      <trkpt lat="46.907222222222224" lon="12.773611111111112">
        <name>Trelebitschalm 1975 m</name>
      </trkpt>
    </trkseg>
  </trk>
  <trk>
    <trkseg>
      <trkpt lat="47.03805555555555" lon="12.353333333333333">
        <name>Sajathütte 2600 m</name>
      </trkpt>
      <trkpt lat="47.03972222222222" lon="12.350000000000001">
        <name>Rote Säule 2820 m</name>
      </trkpt>
      <trkpt lat="47.04694444444444" lon="12.356944444444444">
        <name>Schernesscharte 3040 m</name>
      </trkpt>
      <trkpt lat="47.04972222222222" lon="12.361388888888888">
        <name>Tulpscharte 2948 m</name>
      </trkpt>
      <trkpt lat="47.05166666666666" lon="12.363055555555555">
        <name>Tulpspitze  3054 m</name>
      </trkpt>
      <trkpt lat="47.05305555555555" lon="12.363055555555555">
        <name>Zopetscharte 2958 m</name>
      </trkpt>
      <trkpt lat="47.07361111111111" lon="12.385">
        <name>Wallhorntörl 3045 m</name>
      </trkpt>
      <trkpt lat="47.05722222222222" lon="12.36111111111111">
        <name>Zopetspitze 3198 m</name>
      </trkpt>
      <trkpt lat="47.07611111111112" lon="12.3925">
        <name>Weißspitze 3300 m</name>
      </trkpt>
      <trkpt lat="47.07222222222222" lon="12.401666666666667">
        <name>Vorderer Seekopf 3280 m</name>
      </trkpt>
      <trkpt lat="47.07055555555556" lon="12.408611111111112">
        <name>Hinterer Seekopf 3234 m</name>
      </trkpt>
      <trkpt lat="47.055277777777775" lon="12.37888888888889">
        <name>Eisseehütte 2521 m</name>
      </trkpt>
      <trkpt lat="47.04111111111111" lon="12.380277777777778">
        <name>Ochsnerhütte 2128 m</name>
      </trkpt>
      <trkpt lat="47.03805555555555" lon="12.379722222222222">
        <name>Wallhorner Alm 2133 m</name>
      </trkpt>
      <trkpt lat="47.03194444444444" lon="12.380833333333333">
        <name>Wegkreuz P.2017m 2017 m</name>
      </trkpt>
      <trkpt lat="47.0175" lon="12.375">
        <name>Prägraten 1312 m</name>
      </trkpt>
    </trkseg>
  </trk>
  <trk>
    <trkseg>
      <trkpt lat="47.0175" lon="12.375">
        <name>Prägraten 1312 m</name>
      </trkpt>
      <trkpt lat="47.01972222222222" lon="12.361666666666666">
        <name>Bichl bei Prägraten 1495 m</name>
      </trkpt>
      <trkpt lat="47.03194444444444" lon="12.380833333333333">
        <name>Wegkreuz P.2017m 2017 m</name>
      </trkpt>
      <trkpt lat="47.03944444444444" lon="12.36361111111111">
        <name>Kreuz des Vorderen Sajatkopfs 2913 m</name>
      </trkpt>
      <trkpt lat="47.04694444444444" lon="12.355">
        <name>Steinmann Scherneskopf 3043 m</name>
      </trkpt>
      <trkpt lat="47.04666666666667" lon="12.359166666666667">
        <name>Kreuzspitze 3164 m</name>
      </trkpt>
      <trkpt lat="47.04694444444444" lon="12.355">
        <name>Steinmann Scherneskopf 3043 m</name>
      </trkpt>
      <trkpt lat="47.03805555555555" lon="12.353333333333333">
        <name>Sajathütte 2600 m</name>
      </trkpt>
    </trkseg>
  </trk>
  <trk>
    <trkseg>
      <trkpt lat="47.05916666666666" lon="13.615555555555556">
        <name>Katschberghöhe 1642 m</name>
      </trkpt>
      <trkpt lat="47.055" lon="13.601944444444444">
        <name>Gamskogelhütte 1851 m</name>
      </trkpt>
      <trkpt lat="47.06083333333333" lon="13.596944444444444">
        <name>Tschaneck 2024 m</name>
      </trkpt>
      <trkpt lat="47.05444444444444" lon="13.590833333333334">
        <name>Gontalscharte 1911 m</name>
      </trkpt>
      <trkpt lat="47.05583333333333" lon="13.558611111111112">
        <name>Absprung 2288 m</name>
      </trkpt>
      <trkpt lat="47.058611111111105" lon="13.553611111111111">
        <name>Kareck 2481 m</name>
      </trkpt>
      <trkpt lat="47.05972222222222" lon="13.547222222222222">
        <name>Steinwandeck 2475 m</name>
      </trkpt>
      <trkpt lat="47.06388888888888" lon="13.536944444444444">
        <name>Brandriegel 2371 m</name>
      </trkpt>
      <trkpt lat="47.06472222222222" lon="13.529166666666667">
        <name>Punkt 2308 2308 m</name>
      </trkpt>
      <trkpt lat="47.068333333333335" lon="13.521666666666668">
        <name>Schlungkopf 2407 m</name>
      </trkpt>
      <trkpt lat="47.07027777777778" lon="13.510833333333334">
        <name>Punkt 2388 2388 m</name>
      </trkpt>
      <trkpt lat="47.07194444444445" lon="13.502222222222223">
        <name>Storzspitze 2469 m</name>
      </trkpt>
      <trkpt lat="47.072500000000005" lon="13.495277777777776">
        <name>Lange Wand - höchster Punkt 2470 m</name>
      </trkpt>
      <trkpt lat="47.075833333333335" lon="13.483055555555556">
        <name>Harrerspitze 2434 m</name>
      </trkpt>
      <trkpt lat="47.07694444444445" lon="13.475277777777778">
        <name>Ochsenkopf 2427 m</name>
      </trkpt>
      <trkpt lat="47.0775" lon="13.471388888888889">
        <name>Muhrscharte 2420 m</name>
      </trkpt>
    </trkseg>
  </trk>
  <trk>
    <trkseg>
      <trkpt lat="47.24194444444444" lon="13.571944444444444">
        <name>Obertauern - Schaidberghaus 1640 m</name>
      </trkpt>
      <trkpt lat="47.245" lon="13.590555555555556">
        <name>Punkt 2409 2409 m</name>
      </trkpt>
      <trkpt lat="47.23305555555556" lon="13.594444444444445">
        <name>Steinkarhöhe 2299 m</name>
      </trkpt>
      <trkpt lat="47.228611111111114" lon="13.597222222222223">
        <name>Tauernhöhe 2328 m</name>
      </trkpt>
      <trkpt lat="47.22361111111111" lon="13.597222222222223">
        <name>Gollitschspitze 2247 m</name>
      </trkpt>
      <trkpt lat="47.211666666666666" lon="13.615833333333333">
        <name>Großes Gurpitscheck 2526 m</name>
      </trkpt>
      <trkpt lat="47.20305555555556" lon="13.621666666666668">
        <name>Kleines Gurpitscheck 2378 m</name>
      </trkpt>
      <trkpt lat="47.195277777777775" lon="13.636944444444444">
        <name>Karneitschenhöhe 2181 m</name>
      </trkpt>
      <trkpt lat="47.18611111111111" lon="13.64611111111111">
        <name>Aiblhöhe 2104 m</name>
      </trkpt>
      <trkpt lat="47.17777777777778" lon="13.654722222222222">
        <name>Zechnerriegel 2115 m</name>
      </trkpt>
      <trkpt lat="47.17444444444444" lon="13.659166666666668">
        <name>Fanninghöhe 2115 m</name>
      </trkpt>
      <trkpt lat="47.19583333333333" lon="13.590277777777779">
        <name>Tweng 1240 m</name>
      </trkpt>
    </trkseg>
  </trk>
  <trk>
    <trkseg>
      <trkpt lat="47.26" lon="13.543611111111112">
        <name>Bergstation Gründwaldbahn 1960 m</name>
      </trkpt>
      <trkpt lat="47.26444444444444" lon="13.532222222222224">
        <name>Seekareck 2217 m</name>
      </trkpt>
      <trkpt lat="47.26888888888889" lon="13.535">
        <name>Seekarschneid - Südgipfel 2285 m</name>
      </trkpt>
      <trkpt lat="47.27055555555555" lon="13.535277777777777">
        <name>Seekarschneid 2288 m</name>
      </trkpt>
      <trkpt lat="47.272777777777776" lon="13.544166666666667">
        <name>Seekarspitze 2350 m</name>
      </trkpt>
      <trkpt lat="47.270833333333336" lon="13.547222222222222">
        <name>Seekarspitzbahn Bergstation 2207 m</name>
      </trkpt>
      <trkpt lat="47.27388888888889" lon="13.557222222222222">
        <name>Klammelkarl 2179 m</name>
      </trkpt>
      <trkpt lat="47.271388888888886" lon="13.562222222222223">
        <name>Wurmwand 2195 m</name>
      </trkpt>
      <trkpt lat="47.26916666666666" lon="13.566944444444443">
        <name>Seekarscharte 2022 m</name>
      </trkpt>
      <trkpt lat="47.276666666666664" lon="13.582222222222223">
        <name>Sonntagkarhöhe 2245 m</name>
      </trkpt>
      <trkpt lat="47.26555555555556" lon="13.580555555555556">
        <name>Hundskogel 2241 m</name>
      </trkpt>
      <trkpt lat="47.26722222222222" lon="13.584722222222222">
        <name>Rosskogel 2254 m</name>
      </trkpt>
      <trkpt lat="47.255833333333335" lon="13.579444444444444">
        <name>Plattenspitze 2294 m</name>
      </trkpt>
      <trkpt lat="47.255" lon="13.581666666666667">
        <name>Plattenkar-Sattel 2245 m</name>
      </trkpt>
      <trkpt lat="47.25111111111111" lon="13.585">
        <name>Gamskarlspitze 2411 m</name>
      </trkpt>
      <trkpt lat="47.25888888888889" lon="13.563611111111111">
        <name>Hausstättalm 1790 m</name>
      </trkpt>
    </trkseg>
  </trk>
  <trk>
    <trkseg>
      <trkpt lat="46.969166666666666" lon="13.727500000000001">
        <name>Innerkrems 1480 m</name>
      </trkpt>
      <trkpt lat="46.96416666666667" lon="13.710277777777778">
        <name>Schulteralm 1867 m</name>
      </trkpt>
      <trkpt lat="46.95861111111111" lon="13.702222222222222">
        <name>Kasperkopf 2129 m</name>
      </trkpt>
      <trkpt lat="46.94" lon="13.705">
        <name>Bärenaunock 2292 m</name>
      </trkpt>
      <trkpt lat="46.9375" lon="13.710277777777778">
        <name>Bärenaunock - Südostgipfel 2285 m</name>
      </trkpt>
      <trkpt lat="46.9375" lon="13.692777777777778">
        <name>Hohe Pressing 2370 m</name>
      </trkpt>
      <trkpt lat="46.937777777777775" lon="13.718055555555555">
        <name>Peitlernock 2244 m</name>
      </trkpt>
      <trkpt lat="46.93388888888889" lon="13.738333333333333">
        <name>Kalkriegl 2127 m</name>
      </trkpt>
    </trkseg>
  </trk>
  <trk>
    <trkseg>
      <trkpt lat="46.8975" lon="13.813611111111111">
        <name>Priesshütte 1700 m</name>
      </trkpt>
      <trkpt lat="46.914722222222224" lon="13.82611111111111">
        <name>Pregatscharte 1902 m</name>
      </trkpt>
      <trkpt lat="46.90888888888889" lon="13.850277777777777">
        <name>Rinsennock 2334 m</name>
      </trkpt>
      <trkpt lat="46.91138888888889" lon="13.828333333333333">
        <name>Simmerleck 2079 m</name>
      </trkpt>
      <trkpt lat="46.91916666666666" lon="13.814444444444446">
        <name>Gregerlnock 2296 m</name>
      </trkpt>
      <trkpt lat="46.90833333333333" lon="13.794166666666667">
        <name>Koflernock 2277 m</name>
      </trkpt>
      <trkpt lat="46.8975" lon="13.813611111111111">
        <name>Priesshütte 1700 m</name>
      </trkpt>
      <trkpt lat="46.89" lon="13.794166666666667">
        <name>Schiestlscharte 2024 m</name>
      </trkpt>
      <trkpt lat="46.89333333333333" lon="13.796944444444444">
        <name>Schiestlnock 2206 m</name>
      </trkpt>
    </trkseg>
  </trk>
  <trk>
    <trkseg>
      <trkpt lat="46.934999999999995" lon="13.759444444444444">
        <name>Eisentalhöhe Pass 2049 m</name>
      </trkpt>
      <trkpt lat="46.942499999999995" lon="13.760277777777778">
        <name>Eisentalhöhe 2180 m</name>
      </trkpt>
      <trkpt lat="46.95444444444445" lon="13.750833333333333">
        <name>Grünleitennock 2160 m</name>
      </trkpt>
      <trkpt lat="46.946666666666665" lon="13.74861111111111">
        <name>Zechneralm 1920 m</name>
      </trkpt>
      <trkpt lat="46.894999999999996" lon="13.774444444444445">
        <name>Grundalm 1688 m</name>
      </trkpt>
      <trkpt lat="46.88944444444444" lon="13.770833333333334">
        <name>Wolitzenalm 1777 m</name>
      </trkpt>
      <trkpt lat="46.89138888888889" lon="13.757777777777777">
        <name>Lahnernock 2168 m</name>
      </trkpt>
      <trkpt lat="46.8875" lon="13.754166666666666">
        <name>Pfannnock 2254 m</name>
      </trkpt>
      <trkpt lat="46.88388888888889" lon="13.751944444444444">
        <name>Kleiner Pfannnock 2065 m</name>
      </trkpt>
      <trkpt lat="46.88305555555556" lon="13.743055555555555">
        <name>Punkt 2213 2213 m</name>
      </trkpt>
      <trkpt lat="46.87777777777778" lon="13.740833333333333">
        <name>Predigerstuhl 2180 m</name>
      </trkpt>
      <trkpt lat="46.8775" lon="13.749722222222221">
        <name>Erlacher Bockhütte 1930 m</name>
      </trkpt>
    </trkseg>
  </trk>
  <trk>
    <trkseg>
      <trkpt lat="46.961666666666666" lon="13.541944444444445">
        <name>Frido-Kordon-Hütte 1649 m</name>
      </trkpt>
      <trkpt lat="46.99166666666667" lon="13.558333333333334">
        <name>Karscharte 2104 m</name>
      </trkpt>
      <trkpt lat="47.0025" lon="13.570277777777777">
        <name>Karlhöhe 2218 m</name>
      </trkpt>
      <trkpt lat="46.99277777777778" lon="13.536944444444444">
        <name>Stubeck 2370 m</name>
      </trkpt>
      <trkpt lat="46.99861111111111" lon="13.528333333333334">
        <name>Torscharte 2106 m</name>
      </trkpt>
      <trkpt lat="47.0125" lon="13.530000000000001">
        <name>Poisnig 2528 m</name>
      </trkpt>
      <trkpt lat="47.018055555555556" lon="13.525833333333335">
        <name>Wandspitze 2623 m</name>
      </trkpt>
      <trkpt lat="47.01888888888889" lon="13.54138888888889">
        <name>Sternspitze 2497 m</name>
      </trkpt>
    </trkseg>
  </trk>
  <trk>
    <trkseg>
      <trkpt lat="46.84777777777778" lon="13.774722222222223">
        <name>Parkplatz oberhalb St. Oswald 1316 m</name>
      </trkpt>
      <trkpt lat="46.85277777777778" lon="13.815833333333334">
        <name>Rodresnock / Moschelitzen 2310 m</name>
      </trkpt>
      <trkpt lat="46.85722222222223" lon="13.810555555555556">
        <name>Falkertscharte 2180 m</name>
      </trkpt>
      <trkpt lat="46.86055555555556" lon="13.816944444444443">
        <name>Falkert 2308 m</name>
      </trkpt>
      <trkpt lat="46.86805555555556" lon="13.816666666666666">
        <name>Falkertköpfl 2197 m</name>
      </trkpt>
      <trkpt lat="46.8725" lon="13.80638888888889">
        <name>Steinnock 2197 m</name>
      </trkpt>
      <trkpt lat="46.87444444444444" lon="13.801388888888889">
        <name>Flache Scharte 2080 m</name>
      </trkpt>
      <trkpt lat="46.880833333333335" lon="13.788611111111111">
        <name>Klomnock 2331 m</name>
      </trkpt>
      <trkpt lat="46.87638888888889" lon="13.770000000000001">
        <name>Mallnock 2226 m</name>
      </trkpt>
      <trkpt lat="46.86361111111111" lon="13.785277777777777">
        <name>Falkerthaus 1557 m</name>
      </trkpt>
    </trkseg>
  </trk>
  <trk>
    <trkseg>
      <trkpt lat="46.859722222222224" lon="13.649722222222222">
        <name>Thomannbauerhütte 1696 m</name>
      </trkpt>
      <trkpt lat="46.86222222222222" lon="13.63888888888889">
        <name>Rabenkofel 2059 m</name>
      </trkpt>
      <trkpt lat="46.86944444444445" lon="13.645">
        <name>Punkt 2148 2148 m</name>
      </trkpt>
      <trkpt lat="46.87444444444444" lon="13.639444444444443">
        <name>Stileck 2179 m</name>
      </trkpt>
      <trkpt lat="46.873333333333335" lon="13.655555555555557">
        <name>Langnock 2109 m</name>
      </trkpt>
      <trkpt lat="46.88722222222222" lon="13.671666666666667">
        <name>Großleobennock 2196 m</name>
      </trkpt>
      <trkpt lat="46.89527777777778" lon="13.6925">
        <name>Saunock 2214 m</name>
      </trkpt>
      <trkpt lat="46.89527777777778" lon="13.706944444444444">
        <name>Punkt 2166 2166 m</name>
      </trkpt>
      <trkpt lat="46.89555555555555" lon="13.72">
        <name>Plattnock - Westlicher Vorgipfel 2265 m</name>
      </trkpt>
      <trkpt lat="46.89805555555556" lon="13.726666666666667">
        <name>Plattnock 2316 m</name>
      </trkpt>
      <trkpt lat="46.88305555555556" lon="13.719444444444445">
        <name>Kleiner Rosennock 2361 m</name>
      </trkpt>
    </trkseg>
  </trk>
  <trk>
    <trkseg>
      <trkpt lat="46.97944444444445" lon="13.958888888888888">
        <name>Gipfel südwestlich Dammeggernock 2081 m</name>
      </trkpt>
      <trkpt lat="46.98527777777778" lon="13.964722222222221">
        <name>Dammeggernock 2112 m</name>
      </trkpt>
      <trkpt lat="46.9975" lon="13.9475">
        <name>Grünbühel 2172 m</name>
      </trkpt>
      <trkpt lat="47.00694444444444" lon="13.950277777777776">
        <name>Punkt 2210 2210 m</name>
      </trkpt>
      <trkpt lat="47.013888888888886" lon="13.946666666666667">
        <name>Würflinghöhe 2198 m</name>
      </trkpt>
      <trkpt lat="47.02111111111111" lon="13.95">
        <name>Bärentalscharte 2050 m</name>
      </trkpt>
      <trkpt lat="47.025" lon="13.949444444444445">
        <name>Strannerhöhe 2116 m</name>
      </trkpt>
      <trkpt lat="47.01583333333333" lon="13.931666666666667">
        <name>Tschaudinock 2200 m</name>
      </trkpt>
    </trkseg>
  </trk>
  <trk>
    <trkseg>
      <trkpt lat="47.01" lon="13.79138888888889">
        <name>Karneralm 1895 m</name>
      </trkpt>
      <trkpt lat="47.01555555555556" lon="13.804444444444446">
        <name>Predigtstuhl 2079 m</name>
      </trkpt>
      <trkpt lat="47.00694444444444" lon="13.801944444444445">
        <name>Kleiner Königstuhl 2254 m</name>
      </trkpt>
      <trkpt lat="47.006388888888885" lon="13.813055555555556">
        <name>Feldernock - Westgipfel 2255 m</name>
      </trkpt>
      <trkpt lat="47.006388888888885" lon="13.818333333333333">
        <name>Feldernock 2257 m</name>
      </trkpt>
      <trkpt lat="46.995" lon="13.800555555555556">
        <name>Bärennock 2240 m</name>
      </trkpt>
      <trkpt lat="47.02333333333333" lon="13.779444444444445">
        <name>Mühlhauser Höhe 2215 m</name>
      </trkpt>
      <trkpt lat="47.0325" lon="13.777500000000002">
        <name>Hühnerleitennock  2182 m</name>
      </trkpt>
    </trkseg>
  </trk>
  <trk>
    <trkseg>
      <trkpt lat="46.97944444444445" lon="13.775277777777779">
        <name>Dr. Josef Mehrlhütte 1735 m</name>
      </trkpt>
      <trkpt lat="46.97833333333333" lon="13.775277777777779">
        <name>Passhöhe Schönfeld 1735 m</name>
      </trkpt>
      <trkpt lat="46.96888888888889" lon="13.774722222222223">
        <name>Stubennock 2092 m</name>
      </trkpt>
      <trkpt lat="46.961666666666666" lon="13.773888888888889">
        <name>Sauereggnock 2240 m</name>
      </trkpt>
      <trkpt lat="46.95777777777778" lon="13.777777777777779">
        <name>Vogelsangberg 2206 m</name>
      </trkpt>
      <trkpt lat="46.95277777777778" lon="13.775">
        <name>Seenock 2260 m</name>
      </trkpt>
      <trkpt lat="46.94916666666666" lon="13.775833333333335">
        <name>Friesenhalshöhe 2246 m</name>
      </trkpt>
      <trkpt lat="46.94611111111111" lon="13.777777777777779">
        <name>Königstuhlscharte 2190 m</name>
      </trkpt>
      <trkpt lat="46.94305555555555" lon="13.784166666666666">
        <name>Königstuhl 2336 m</name>
      </trkpt>
      <trkpt lat="46.93888888888888" lon="13.783055555555556">
        <name>Karlnock 2320 m</name>
      </trkpt>
      <trkpt lat="46.93472222222222" lon="13.794166666666667">
        <name>Stangnock 2316 m</name>
      </trkpt>
      <trkpt lat="46.950833333333335" lon="13.801111111111112">
        <name>Mühlbachernock - Westgipfel 2269 m</name>
      </trkpt>
      <trkpt lat="46.95055555555556" lon="13.809444444444445">
        <name>Mühlbackernock 2273 m</name>
      </trkpt>
      <trkpt lat="46.95861111111111" lon="13.797777777777778">
        <name>Hinteralmscharte 2132 m</name>
      </trkpt>
      <trkpt lat="46.965" lon="13.799444444444445">
        <name>Gipfel nördlich Hinteralmscharte 2219 m</name>
      </trkpt>
      <trkpt lat="46.97138888888889" lon="13.803611111111111">
        <name>Hagleiten 2280 m</name>
      </trkpt>
      <trkpt lat="46.971944444444446" lon="13.799444444444445">
        <name>Rosaninhöhe 2275 m</name>
      </trkpt>
      <trkpt lat="46.986111111111114" lon="13.795">
        <name>Ochsenriegel 2282 m</name>
      </trkpt>
      <trkpt lat="46.99194444444444" lon="13.79138888888889">
        <name>Schilchernock 2270 m</name>
      </trkpt>
      <trkpt lat="46.99611111111111" lon="13.785277777777777">
        <name>Klölingscharte 2114 m</name>
      </trkpt>
      <trkpt lat="46.99944444444444" lon="13.781111111111112">
        <name>Klölingnock 2168 m</name>
      </trkpt>
    </trkseg>
  </trk>
  <trk>
    <trkseg>
      <trkpt lat="47.05916666666666" lon="13.615555555555556">
        <name>Katschberghöhe 1642 m</name>
      </trkpt>
      <trkpt lat="47.05583333333333" lon="13.639166666666666">
        <name>Aineck 2222 m</name>
      </trkpt>
      <trkpt lat="47.0425" lon="13.644444444444444">
        <name>Teuerlnock 2145 m</name>
      </trkpt>
      <trkpt lat="47.03361111111111" lon="13.641388888888889">
        <name>Hafnerhütte 1736 m</name>
      </trkpt>
    </trkseg>
  </trk>
  <trk>
    <trkseg>
      <trkpt lat="47.03722222222222" lon="13.68">
        <name>Neue Bonner Hütte 1712 m</name>
      </trkpt>
      <trkpt lat="47.00861111111111" lon="13.651388888888889">
        <name>Kramerbichl 2018 m</name>
      </trkpt>
      <trkpt lat="47.005" lon="13.657222222222222">
        <name>Turnhöhe 2078 m</name>
      </trkpt>
      <trkpt lat="47.006388888888885" lon="13.676388888888889">
        <name>Schereck 2181 m</name>
      </trkpt>
      <trkpt lat="47.00694444444444" lon="13.693055555555556">
        <name>Schwarzwand 2214 m</name>
      </trkpt>
      <trkpt lat="46.9925" lon="13.714444444444444">
        <name>Kameritzhöhe 2167 m</name>
      </trkpt>
      <trkpt lat="46.990833333333335" lon="13.728055555555555">
        <name>Gaipahöhe 2192 m</name>
      </trkpt>
      <trkpt lat="46.99388888888889" lon="13.743888888888888">
        <name>Zechnerhöhe 2188 m</name>
      </trkpt>
      <trkpt lat="46.98833333333334" lon="13.7575">
        <name>Mattehanshöhe - Nördlicher Vorgipfel 2070 m</name>
      </trkpt>
      <trkpt lat="46.98222222222223" lon="13.758611111111112">
        <name>Mattehanshöhe 2086 m</name>
      </trkpt>
      <trkpt lat="47.01583333333333" lon="13.689166666666667">
        <name>Laußnitzsee 2001 m</name>
      </trkpt>
      <trkpt lat="47.02166666666667" lon="13.682777777777778">
        <name>Laußnitzer Hütte 1839 m</name>
      </trkpt>
    </trkseg>
  </trk>
  <trk>
    <trkseg>
      <trkpt lat="46.830555555555556" lon="12.612777777777778">
        <name>Parkplatz Pedretscherkaser 1701 m</name>
      </trkpt>
      <trkpt lat="46.840833333333336" lon="12.609444444444444">
        <name>Huberkaser 1980 m</name>
      </trkpt>
      <trkpt lat="46.85583333333334" lon="12.602222222222222">
        <name>Rotstein 2702 m</name>
      </trkpt>
      <trkpt lat="46.85472222222222" lon="12.608888888888888">
        <name>Schleitner Kofel 2650 m</name>
      </trkpt>
      <trkpt lat="46.85166666666667" lon="12.612777777777778">
        <name>Lavantegg 2658 m</name>
      </trkpt>
      <trkpt lat="46.84527777777778" lon="12.623888888888889">
        <name>Schönbergspitze 2640 m</name>
      </trkpt>
      <trkpt lat="46.84027777777778" lon="12.6375">
        <name>Hintere Lavantspitze 2546 m</name>
      </trkpt>
      <trkpt lat="46.83972222222222" lon="12.64472222222222">
        <name>Vordere Lavantspitze 2516 m</name>
      </trkpt>
      <trkpt lat="46.83555555555556" lon="12.650277777777777">
        <name>Böses Weibele 2521 m</name>
      </trkpt>
    </trkseg>
  </trk>
  <trk>
    <trkseg>
      <trkpt lat="46.841944444444444" lon="12.247499999999999">
        <name>Sankt Magdalena - Talschlusshütte 1465 m</name>
      </trkpt>
      <trkpt lat="46.84055555555556" lon="12.211388888888887">
        <name>Pfinnalm 2152 m</name>
      </trkpt>
      <trkpt lat="46.840833333333336" lon="12.198333333333334">
        <name>Pfinnscharte 2395 m</name>
      </trkpt>
      <trkpt lat="46.837500000000006" lon="12.2">
        <name>Fellhorn / Karbacher Berg 2518 m</name>
      </trkpt>
      <trkpt lat="46.845555555555556" lon="12.199166666666667">
        <name>Hoher Mann 2593 m</name>
      </trkpt>
      <trkpt lat="46.847500000000004" lon="12.200833333333332">
        <name>unbenannte Scharte 2499 m</name>
      </trkpt>
      <trkpt lat="46.84916666666667" lon="12.202499999999999">
        <name>Kleiner Hoher Mann 2565 m</name>
      </trkpt>
      <trkpt lat="46.85583333333334" lon="12.200555555555555">
        <name>Regelspitze - Südgipfel / Skigipfel 2747 m</name>
      </trkpt>
      <trkpt lat="46.85888888888889" lon="12.200555555555555">
        <name>Regelspitze 2775 m</name>
      </trkpt>
      <trkpt lat="46.86083333333333" lon="12.20361111111111">
        <name>Auksterspitz 2734 m</name>
      </trkpt>
      <trkpt lat="46.86222222222222" lon="12.208055555555555">
        <name>Rötelspitz 2738 m</name>
      </trkpt>
      <trkpt lat="46.865" lon="12.215">
        <name>Edelweißknopf  2768 m</name>
      </trkpt>
      <trkpt lat="46.869166666666665" lon="12.21888888888889">
        <name>Punkt 2693 2693 m</name>
      </trkpt>
      <trkpt lat="46.86944444444445" lon="12.219722222222222">
        <name>Punkt 2694 2694 m</name>
      </trkpt>
      <trkpt lat="46.8725" lon="12.219444444444445">
        <name>Punkt 2656 2656 m</name>
      </trkpt>
      <trkpt lat="46.87361111111111" lon="12.21861111111111">
        <name>Hinterbergkofel 2725 m</name>
      </trkpt>
      <trkpt lat="46.87694444444445" lon="12.219722222222222">
        <name>Halsscharte 2549 m</name>
      </trkpt>
      <trkpt lat="46.87972222222222" lon="12.2225">
        <name>Innerrodelkunke 2729 m</name>
      </trkpt>
      <trkpt lat="46.88027777777778" lon="12.231666666666667">
        <name>Außerrodelkunke 2690 m</name>
      </trkpt>
      <trkpt lat="46.880833333333335" lon="12.2325">
        <name>Außerrodelkunke - Nordostgipfel 2692 m</name>
      </trkpt>
    </trkseg>
  </trk>
  <trk>
    <trkseg>
      <trkpt lat="46.722500000000004" lon="11.9675">
        <name>Furkelsattel 1758 m</name>
      </trkpt>
      <trkpt lat="46.717777777777776" lon="11.969722222222222">
        <name>Ücia Picio Pré 1950 m</name>
      </trkpt>
      <trkpt lat="46.711666666666666" lon="11.979722222222222">
        <name>Piz da Peres 2507 m</name>
      </trkpt>
      <trkpt lat="46.70861111111111" lon="11.986944444444443">
        <name>Dreifingerscharte 2330 m</name>
      </trkpt>
      <trkpt lat="46.70888888888889" lon="11.991666666666665">
        <name>Dreifingerspitz 2479 m</name>
      </trkpt>
    </trkseg>
  </trk>
  <trk>
    <trkseg>
      <trkpt lat="46.91888888888889" lon="11.77638888888889">
        <name>Parkplatz Zösen 1700 m</name>
      </trkpt>
      <trkpt lat="46.90833333333333" lon="11.782222222222224">
        <name>Eggespitz 2187 m</name>
      </trkpt>
      <trkpt lat="46.89611111111111" lon="11.765">
        <name>Flemmberg 2696 m</name>
      </trkpt>
      <trkpt lat="46.89555555555555" lon="11.753055555555555">
        <name>Neblnock 2615 m</name>
      </trkpt>
      <trkpt lat="46.89861111111111" lon="11.748055555555554">
        <name>Grinth 2620 m</name>
      </trkpt>
      <trkpt lat="46.90222222222222" lon="11.743055555555555">
        <name>Rieglerjoch 2439 m</name>
      </trkpt>
      <trkpt lat="46.905" lon="11.741666666666665">
        <name>Hörndle 2603 m</name>
      </trkpt>
      <trkpt lat="46.90833333333333" lon="11.738333333333333">
        <name>Blauwand 2584 m</name>
      </trkpt>
      <trkpt lat="46.91166666666666" lon="11.737222222222222">
        <name>Dengelstein 2698 m</name>
      </trkpt>
      <trkpt lat="46.91777777777777" lon="11.737777777777778">
        <name>Schwarze Riffl 2744 m</name>
      </trkpt>
      <trkpt lat="46.92027777777778" lon="11.739999999999998">
        <name>Schwarze Riffl - Nordgipfel 2742 m</name>
      </trkpt>
      <trkpt lat="46.91722222222222" lon="11.771944444444445">
        <name>Mair-zu-Hofalm 1728 m</name>
      </trkpt>
    </trkseg>
  </trk>
  <trk>
    <trkseg>
      <trkpt lat="46.48777777777778" lon="11.811388888888889">
        <name>Passo Pordoi / Pordoijoch 2230 m</name>
      </trkpt>
      <trkpt lat="46.474444444444444" lon="11.801944444444445">
        <name>Col di Rosc / Col dei Rossi 2383 m</name>
      </trkpt>
      <trkpt lat="46.47833333333333" lon="11.812777777777779">
        <name>Rifugio Sass Becé 2423 m</name>
      </trkpt>
      <trkpt lat="46.4775" lon="11.814722222222223">
        <name>Rifugio Fredarola 2395 m</name>
      </trkpt>
      <trkpt lat="46.475" lon="11.825833333333334">
        <name>Col del Cuc 2563 m</name>
      </trkpt>
      <trkpt lat="46.475833333333334" lon="11.833055555555555">
        <name>P.2520m 2520 m</name>
      </trkpt>
      <trkpt lat="46.47638888888889" lon="11.840833333333334">
        <name>Sasso del Cappello / Sas de Ciapel 2557 m</name>
      </trkpt>
      <trkpt lat="46.475" lon="11.8475">
        <name>Col de Pausa 2415 m</name>
      </trkpt>
      <trkpt lat="46.475" lon="11.854722222222222">
        <name>Le Forfes 2585 m</name>
      </trkpt>
      <trkpt lat="46.472500000000004" lon="11.862499999999999">
        <name>Belvedère 2648 m</name>
      </trkpt>
      <trkpt lat="46.474444444444444" lon="11.833055555555555">
        <name>Rifugio Viel Dal Pan 2432 m</name>
      </trkpt>
    </trkseg>
  </trk>
  <trk>
    <trkseg>
      <trkpt lat="46.48777777777778" lon="11.811388888888889">
        <name>Passo Pordoi / Pordoijoch 2230 m</name>
      </trkpt>
      <trkpt lat="46.501666666666665" lon="11.811666666666667">
        <name>Forcella Pordoi 2848 m</name>
      </trkpt>
      <trkpt lat="46.50194444444445" lon="11.812222222222223">
        <name>Rifugio Forcella Pordoi 2848 m</name>
      </trkpt>
      <trkpt lat="46.50194444444445" lon="11.807222222222222">
        <name>Sass Pordoi / Pordoispitze 2950 m</name>
      </trkpt>
      <trkpt lat="46.500277777777775" lon="11.816111111111113">
        <name>Sass di Forca - Westgipfel 2919 m</name>
      </trkpt>
      <trkpt lat="46.50083333333333" lon="11.821666666666667">
        <name>Sass di Forca - Hauptgipfel 2923 m</name>
      </trkpt>
      <trkpt lat="46.50194444444445" lon="11.823055555555555">
        <name>Punta de Joel 2948 m</name>
      </trkpt>
      <trkpt lat="46.50333333333333" lon="11.823055555555555">
        <name>P.2895 2895 m</name>
      </trkpt>
      <trkpt lat="46.50861111111111" lon="11.828055555555554">
        <name>Piz Boè 3152 m</name>
      </trkpt>
      <trkpt lat="46.509166666666665" lon="11.828333333333333">
        <name>Fassa Hütte 3152 m</name>
      </trkpt>
      <trkpt lat="46.50972222222222" lon="11.827777777777778">
        <name>Forcella dai Ciamorces 3110 m</name>
      </trkpt>
      <trkpt lat="46.51416666666667" lon="11.8325">
        <name>Piz Lech Dlacè 3009 m</name>
      </trkpt>
      <trkpt lat="46.51722222222222" lon="11.831944444444444">
        <name>P.2961 2961 m</name>
      </trkpt>
      <trkpt lat="46.52222222222222" lon="11.836388888888889">
        <name>Neuner 2904 m</name>
      </trkpt>
      <trkpt lat="46.51722222222222" lon="11.8375">
        <name>Pizes dl Valun 2905 m</name>
      </trkpt>
      <trkpt lat="46.515" lon="11.823888888888888">
        <name>Rifugio Boè / Bamberger Hütte 2871 m</name>
      </trkpt>
      <trkpt lat="46.519444444444446" lon="11.823888888888888">
        <name>Zwischenkofel / Antersass 2907 m</name>
      </trkpt>
      <trkpt lat="46.525555555555556" lon="11.822777777777777">
        <name>Sas de Mesdì 2980 m</name>
      </trkpt>
      <trkpt lat="46.527499999999996" lon="11.82638888888889">
        <name>Bech de Mesdi 2967 m</name>
      </trkpt>
      <trkpt lat="46.53138888888889" lon="11.825">
        <name>Cima Pisciadù 2985 m</name>
      </trkpt>
      <trkpt lat="46.515" lon="11.823888888888888">
        <name>Rifugio Boè / Bamberger Hütte 2871 m</name>
      </trkpt>
      <trkpt lat="46.51361111111111" lon="11.819444444444445">
        <name>Col de Toron 2927 m</name>
      </trkpt>
      <trkpt lat="46.51083333333333" lon="11.818333333333333">
        <name>Col Alton 2882 m</name>
      </trkpt>
    </trkseg>
  </trk>
  <trk>
    <trkseg>
      <trkpt lat="46.50805555555556" lon="11.767777777777779">
        <name>Sellajoch / Passo Sella 2244 m</name>
      </trkpt>
      <trkpt lat="46.50361111111111" lon="11.752222222222223">
        <name>Rifugio Salei 2222 m</name>
      </trkpt>
      <trkpt lat="46.49944444444444" lon="11.74861111111111">
        <name>Forcella Rodella 2316 m</name>
      </trkpt>
      <trkpt lat="46.495555555555555" lon="11.74861111111111">
        <name>Col Rodella 2484 m</name>
      </trkpt>
      <trkpt lat="46.51305555555555" lon="11.75361111111111">
        <name>Steinerne Stadt 2200 m</name>
      </trkpt>
      <trkpt lat="46.52861111111111" lon="11.748055555555554">
        <name>Rifugio Comici 2155 m</name>
      </trkpt>
      <trkpt lat="46.53194444444444" lon="11.750555555555556">
        <name>Piz Sella 2284 m</name>
      </trkpt>
      <trkpt lat="46.53861111111111" lon="11.7525">
        <name>Ciampinoi 2256 m</name>
      </trkpt>
    </trkseg>
  </trk>
  <trk>
    <trkseg>
      <trkpt lat="46.86833333333333" lon="11.251666666666667">
        <name>Flading 1482 m</name>
      </trkpt>
      <trkpt lat="46.858333333333334" lon="11.235555555555555">
        <name>Fladinger Berg 2275 m</name>
      </trkpt>
      <trkpt lat="46.85" lon="11.230833333333333">
        <name>Kleine Kreuzspitze 2512 m</name>
      </trkpt>
      <trkpt lat="46.855555555555554" lon="11.209999999999999">
        <name>Hohe Kreuzspitze / Grande Punta di Montecroce  2743 m</name>
      </trkpt>
      <trkpt lat="46.85388888888889" lon="11.20111111111111">
        <name>Weiße Wand P. 2718 2718 m</name>
      </trkpt>
      <trkpt lat="46.853611111111114" lon="11.2">
        <name>Weiße Wand P.2715 2715 m</name>
      </trkpt>
      <trkpt lat="46.85333333333333" lon="11.1975">
        <name>Hochwart - Nordgipfel 2609 m</name>
      </trkpt>
      <trkpt lat="46.8525" lon="11.196666666666667">
        <name>Hochwart - Südgipfel 2608 m</name>
      </trkpt>
      <trkpt lat="46.861111111111114" lon="11.20861111111111">
        <name>Punkt 2634 2634 m</name>
      </trkpt>
      <trkpt lat="46.863055555555555" lon="11.2075">
        <name>Punkt 2647 2647 m</name>
      </trkpt>
      <trkpt lat="46.86527777777778" lon="11.208333333333332">
        <name>Punkt 2658 2658 m</name>
      </trkpt>
      <trkpt lat="46.867777777777775" lon="11.209722222222222">
        <name>Punkt 2661 2661 m</name>
      </trkpt>
      <trkpt lat="46.87" lon="11.207777777777777">
        <name>Zermaidspitze 2798 m</name>
      </trkpt>
      <trkpt lat="46.868611111111115" lon="11.23361111111111">
        <name>Klamm Alm 1925 m</name>
      </trkpt>
    </trkseg>
  </trk>
  <trk>
    <trkseg>
      <trkpt lat="46.839444444444446" lon="11.321388888888889">
        <name>Jaufenpass 1994 m</name>
      </trkpt>
      <trkpt lat="46.833333333333336" lon="11.334166666666667">
        <name>Jaufenspitze 2480 m</name>
      </trkpt>
      <trkpt lat="46.840833333333336" lon="11.318333333333333">
        <name>Punkt 2145 2145 m</name>
      </trkpt>
    </trkseg>
  </trk>
  <trk>
    <trkseg>
      <trkpt lat="46.88472222222222" lon="12.182222222222222">
        <name>Montal/Steinzgeralm 1891 m</name>
      </trkpt>
      <trkpt lat="46.882222222222225" lon="12.188333333333334">
        <name>Obere Steinzgeralm 2076 m</name>
      </trkpt>
      <trkpt lat="46.88527777777778" lon="12.167222222222222">
        <name>Antholzer See 1642 m</name>
      </trkpt>
      <trkpt lat="46.86472222222223" lon="12.18">
        <name>Rote Wand / Croda Rossa 2818 m</name>
      </trkpt>
      <trkpt lat="46.86361111111111" lon="12.181666666666667">
